<entry id="id.LOC1" term="Argentina" countryISOcode="AR" region="Ciudad Autonoma de Buenos Aires" city="Buenos Aires" latitude="-34.613150" longitude="-58.377230" postalCode="1871" timeZone="-03:00"/><entry id="id.LOC2" term="Argentina" countryISOcode="AR" region="Cordoba" city="Cordoba" latitude="-31.413500" longitude="-64.181050" postalCode="5012" timeZone="-03:00"/><entry id="id.LOC3" term="Armenia" countryISOcode="AM" region="Aragacotn" city="Aygeshat" latitude="40.235710" longitude="44.286920" postalCode="1114" timeZone="+04:00"/><entry id="id.LOC4" term="Armenia" countryISOcode="AM" region="Aragacotn" city="Kosh" latitude="40.299990" longitude="44.155840" postalCode="215" timeZone="+04:00"/><entry id="id.LOC5" term="Armenia" countryISOcode="AM" region="Ararat" city="Aralez" latitude="39.901950" longitude="44.651400" postalCode="606" timeZone="+04:00"/><entry id="id.LOC6" term="Armenia" countryISOcode="AM" region="Ararat" city="Ararat" latitude="39.831660" longitude="44.704890" postalCode="607" timeZone="+04:00"/><entry id="id.LOC7" term="Armenia" countryISOcode="AM" region="Ararat" city="Argavand" latitude="40.158760" longitude="44.439160" postalCode="805" timeZone="+04:00"/><entry id="id.LOC8" term="Armenia" countryISOcode="AM" region="Ararat" city="Artashat" latitude="39.961440" longitude="44.544470" postalCode="720" timeZone="+04:00"/><entry id="id.LOC9" term="Armenia" countryISOcode="AM" region="Ararat" city="Shahumyan" latitude="39.938450" longitude="44.569730" postalCode="732" timeZone="+04:00"/><entry id="id.LOC10" term="Armenia" countryISOcode="AM" region="Armavir" city="Arbat'" latitude="40.138110" longitude="44.402000" postalCode="804" timeZone="+04:00"/><entry id="id.LOC11" term="Armenia" countryISOcode="AM" region="Armavir" city="Hoktember" latitude="40.132060" longitude="44.009690" postalCode="4112" timeZone="+04:00"/><entry id="id.LOC12" term="Armenia" countryISOcode="AM" region="Erevan" city="Vardadzor" latitude="40.187010" longitude="45.192120" postalCode="1417" timeZone="+04:00"/><entry id="id.LOC13" term="Armenia" countryISOcode="AM" region="Erevan" city="Yerevan" latitude="40.181110" longitude="44.513610" postalCode="19" timeZone="+04:00"/><entry id="id.LOC14" term="Armenia" countryISOcode="AM" region="Gegark'unik'" city="Astghadzor" latitude="40.122480" longitude="45.356980" postalCode="1403" timeZone="+04:00"/><entry id="id.LOC15" term="Armenia" countryISOcode="AM" region="Gegark'unik'" city="Martuni" latitude="40.137680" longitude="45.304500" postalCode="1315" timeZone="+04:00"/><entry id="id.LOC16" term="Armenia" countryISOcode="AM" region="Gegark'unik'" city="Tsovazard" latitude="40.470900" longitude="45.058790" postalCode="1513" timeZone="+04:00"/><entry id="id.LOC17" term="Armenia" countryISOcode="AM" region="Gegark'unik'" city="Vaghashen" latitude="40.135780" longitude="45.328790" postalCode="1416" timeZone="+04:00"/><entry id="id.LOC18" term="Armenia" countryISOcode="AM" region="Kotayk'" city="Abovyan" latitude="40.267410" longitude="44.626560" postalCode="2208" timeZone="+04:00"/><entry id="id.LOC19" term="Armenia" countryISOcode="AM" region="Kotayk'" city="Bjni" latitude="40.455900" longitude="44.648120" postalCode="2504" timeZone="+04:00"/><entry id="id.LOC20" term="Armenia" countryISOcode="AM" region="Lori" city="Gyulagarak" latitude="40.967150" longitude="44.471440" postalCode="1910" timeZone="+04:00"/><entry id="id.LOC21" term="Armenia" countryISOcode="AM" region="Lori" city="Norashen" latitude="41.188860" longitude="44.333360" postalCode="2114" timeZone="+04:00"/><entry id="id.LOC22" term="Armenia" countryISOcode="AM" region="Lori" city="Tashir" latitude="41.120720" longitude="44.284620" postalCode="2103" timeZone="+04:00"/><entry id="id.LOC23" term="Armenia" countryISOcode="AM" region="Lori" city="Vanadzor" latitude="40.804560" longitude="44.493900" postalCode="2023" timeZone="+04:00"/><entry id="id.LOC24" term="Armenia" countryISOcode="AM" region="Sirak" city="Amasia" latitude="40.954420" longitude="43.787200" postalCode="912" timeZone="+04:00"/><entry id="id.LOC25" term="Armenia" countryISOcode="AM" region="Sirak" city="Anushavan" latitude="40.650130" longitude="43.977560" postalCode="3019" timeZone="+04:00"/><entry id="id.LOC26" term="Armenia" countryISOcode="AM" region="Sirak" city="Gyumri" latitude="40.794200" longitude="43.845280" postalCode="3126" timeZone="+04:00"/><entry id="id.LOC27" term="Armenia" countryISOcode="AM" region="Tavus" city="Dilijan" latitude="40.741030" longitude="44.863620" postalCode="3906" timeZone="+04:00"/><entry id="id.LOC28" term="Armenia" countryISOcode="AM" region="Tavus" city="Ijevan" latitude="40.878320" longitude="45.149220" postalCode="4002" timeZone="+04:00"/><entry id="id.LOC29" term="Armenia" countryISOcode="AM" region="Tavus" city="Noyemberyan" latitude="41.172440" longitude="44.999170" postalCode="4101" timeZone="+04:00"/><entry id="id.LOC30" term="Armenia" countryISOcode="AM" region="Vayoc Jor" city="Rrind" latitude="39.760220" longitude="45.179070" postalCode="3613" timeZone="+04:00"/><entry id="id.LOC31" term="Australia" countryISOcode="AU" region="Australian Capital Territory" city="Canberra" latitude="-35.283460" longitude="149.128070" postalCode="2612" timeZone="+11:00"/><entry id="id.LOC32" term="Australia" countryISOcode="AU" region="New South Wales" city="Albury" latitude="-36.074940" longitude="146.923940" postalCode="2640" timeZone="+11:00"/><entry id="id.LOC33" term="Australia" countryISOcode="AU" region="New South Wales" city="Alstonville" latitude="-28.841860" longitude="153.440220" postalCode="2477" timeZone="+11:00"/><entry id="id.LOC34" term="Australia" countryISOcode="AU" region="New South Wales" city="Appleby" latitude="-30.966670" longitude="150.850000" postalCode="2345" timeZone="+11:00"/><entry id="id.LOC35" term="Australia" countryISOcode="AU" region="New South Wales" city="Armidale" latitude="-30.508280" longitude="151.671230" postalCode="2350" timeZone="+11:00"/><entry id="id.LOC36" term="Australia" countryISOcode="AU" region="New South Wales" city="Ballina" latitude="-28.864140" longitude="153.565410" postalCode="2478" timeZone="+11:00"/><entry id="id.LOC37" term="Australia" countryISOcode="AU" region="New South Wales" city="Banora Point" latitude="-28.212980" longitude="153.536340" postalCode="2486" timeZone="+11:00"/><entry id="id.LOC38" term="Australia" countryISOcode="AU" region="New South Wales" city="Batemans Bay" latitude="-35.706580" longitude="150.175420" postalCode="2536" timeZone="+11:00"/><entry id="id.LOC39" term="Australia" countryISOcode="AU" region="New South Wales" city="Bega" latitude="-36.673920" longitude="149.841780" postalCode="2550" timeZone="+11:00"/><entry id="id.LOC40" term="Australia" countryISOcode="AU" region="New South Wales" city="Bellbird" latitude="-32.859920" longitude="151.318730" postalCode="2325" timeZone="+11:00"/><entry id="id.LOC41" term="Australia" countryISOcode="AU" region="New South Wales" city="Bellingen" latitude="-30.452940" longitude="152.899110" postalCode="2454" timeZone="+11:00"/><entry id="id.LOC42" term="Australia" countryISOcode="AU" region="New South Wales" city="Blackheath" latitude="-33.633750" longitude="150.285760" postalCode="2780" timeZone="+11:00"/><entry id="id.LOC43" term="Australia" countryISOcode="AU" region="New South Wales" city="Blayney" latitude="-33.532330" longitude="149.253670" postalCode="2799" timeZone="+11:00"/><entry id="id.LOC44" term="Australia" countryISOcode="AU" region="New South Wales" city="Bligh Park" latitude="-33.639850" longitude="150.802480" postalCode="2756" timeZone="+11:00"/><entry id="id.LOC45" term="Australia" countryISOcode="AU" region="New South Wales" city="Blue Bay" latitude="-33.354130" longitude="151.500240" postalCode="2261" timeZone="+11:00"/><entry id="id.LOC46" term="Australia" countryISOcode="AU" region="New South Wales" city="Blue Mountains" latitude="-33.713310" longitude="150.330650" postalCode="2780" timeZone="+11:00"/><entry id="id.LOC47" term="Australia" countryISOcode="AU" region="New South Wales" city="Bonalbo" latitude="-28.737090" longitude="152.623920" postalCode="2469" timeZone="+11:00"/><entry id="id.LOC48" term="Australia" countryISOcode="AU" region="New South Wales" city="Bowral" latitude="-34.477500" longitude="150.420400" postalCode="2576" timeZone="+11:00"/><entry id="id.LOC49" term="Australia" countryISOcode="AU" region="New South Wales" city="Byron Bay" latitude="-28.642010" longitude="153.611940" postalCode="2481" timeZone="+11:00"/><entry id="id.LOC50" term="Australia" countryISOcode="AU" region="New South Wales" city="Callaghan" latitude="-32.892050" longitude="151.705310" postalCode="2287" timeZone="+11:00"/><entry id="id.LOC51" term="Australia" countryISOcode="AU" region="New South Wales" city="Casino" latitude="-28.858190" longitude="153.047480" postalCode="2470" timeZone="+11:00"/><entry id="id.LOC52" term="Australia" countryISOcode="AU" region="New South Wales" city="Cobbitty" latitude="-34.015920" longitude="150.678540" postalCode="2570" timeZone="+11:00"/><entry id="id.LOC53" term="Australia" countryISOcode="AU" region="New South Wales" city="Coffs Harbour" latitude="-30.296260" longitude="153.113510" postalCode="2450" timeZone="+11:00"/><entry id="id.LOC54" term="Australia" countryISOcode="AU" region="New South Wales" city="Coolah" latitude="-31.827870" longitude="149.715640" postalCode="2843" timeZone="+11:00"/><entry id="id.LOC55" term="Australia" countryISOcode="AU" region="New South Wales" city="Coonabarabran" latitude="-31.277340" longitude="149.279040" postalCode="2357" timeZone="+11:00"/><entry id="id.LOC56" term="Australia" countryISOcode="AU" region="New South Wales" city="Cowra" latitude="-33.835540" longitude="148.696620" postalCode="2794" timeZone="+11:00"/><entry id="id.LOC57" term="Australia" countryISOcode="AU" region="New South Wales" city="Curraghmohr" latitude="-35.650000" longitude="145.633330" postalCode="2713" timeZone="+11:00"/><entry id="id.LOC58" term="Australia" countryISOcode="AU" region="New South Wales" city="Deniliquin" latitude="-35.527410" longitude="144.959580" postalCode="2710" timeZone="+11:00"/><entry id="id.LOC59" term="Australia" countryISOcode="AU" region="New South Wales" city="Dubbo" latitude="-32.242950" longitude="148.604840" postalCode="2830" timeZone="+11:00"/><entry id="id.LOC60" term="Australia" countryISOcode="AU" region="New South Wales" city="Emerald Beach" latitude="-30.163880" longitude="153.181900" postalCode="2456" timeZone="+11:00"/><entry id="id.LOC61" term="Australia" countryISOcode="AU" region="New South Wales" city="Eulomogo" latitude="-32.266670" longitude="148.683330" postalCode="2830" timeZone="+11:00"/><entry id="id.LOC62" term="Australia" countryISOcode="AU" region="New South Wales" city="Forbes" latitude="-33.384360" longitude="148.007600" postalCode="2871" timeZone="+11:00"/><entry id="id.LOC63" term="Australia" countryISOcode="AU" region="New South Wales" city="Forster" latitude="-32.181360" longitude="152.517150" postalCode="2428" timeZone="+11:00"/><entry id="id.LOC64" term="Australia" countryISOcode="AU" region="New South Wales" city="Frederickton" latitude="-31.037490" longitude="152.875300" postalCode="2440" timeZone="+11:00"/><entry id="id.LOC65" term="Australia" countryISOcode="AU" region="New South Wales" city="Gilgandra" latitude="-31.711730" longitude="148.662520" postalCode="2827" timeZone="+11:00"/><entry id="id.LOC66" term="Australia" countryISOcode="AU" region="New South Wales" city="Gladstone" latitude="-31.033330" longitude="152.950000" postalCode="2440" timeZone="+11:00"/><entry id="id.LOC67" term="Australia" countryISOcode="AU" region="New South Wales" city="Glenreagh" latitude="-30.053370" longitude="152.978610" postalCode="2450" timeZone="+11:00"/><entry id="id.LOC68" term="Australia" countryISOcode="AU" region="New South Wales" city="Gloucester" latitude="-32.007700" longitude="151.963300" postalCode="2422" timeZone="+11:00"/><entry id="id.LOC69" term="Australia" countryISOcode="AU" region="New South Wales" city="Gosford" latitude="-33.424400" longitude="151.343990" postalCode="2250" timeZone="+11:00"/><entry id="id.LOC70" term="Australia" countryISOcode="AU" region="New South Wales" city="Goulburn" latitude="-34.751550" longitude="149.720860" postalCode="2580" timeZone="+11:00"/><entry id="id.LOC71" term="Australia" countryISOcode="AU" region="New South Wales" city="Griffith" latitude="-34.288530" longitude="146.050930" postalCode="2680" timeZone="+11:00"/><entry id="id.LOC72" term="Australia" countryISOcode="AU" region="New South Wales" city="Gulgong" latitude="-32.362530" longitude="149.532010" postalCode="2852" timeZone="+11:00"/><entry id="id.LOC73" term="Australia" countryISOcode="AU" region="New South Wales" city="Harrington" latitude="-31.872270" longitude="152.691740" postalCode="2427" timeZone="+11:00"/><entry id="id.LOC74" term="Australia" countryISOcode="AU" region="New South Wales" city="Hobartville" latitude="-33.604350" longitude="150.742990" postalCode="2755" timeZone="+11:00"/><entry id="id.LOC75" term="Australia" countryISOcode="AU" region="New South Wales" city="Howlong" latitude="-35.979180" longitude="146.625140" postalCode="2643" timeZone="+11:00"/><entry id="id.LOC76" term="Australia" countryISOcode="AU" region="New South Wales" city="Hurstville" latitude="-33.966667" longitude="151.100000" postalCode="2221" timeZone="+11:00"/><entry id="id.LOC77" term="Australia" countryISOcode="AU" region="New South Wales" city="Jerilderie" latitude="-35.356640" longitude="145.728910" postalCode="2716" timeZone="+11:00"/><entry id="id.LOC78" term="Australia" countryISOcode="AU" region="New South Wales" city="Kelso" latitude="-33.416670" longitude="149.600000" postalCode="2795" timeZone="+11:00"/><entry id="id.LOC79" term="Australia" countryISOcode="AU" region="New South Wales" city="Kempsey" latitude="-31.078980" longitude="152.830930" postalCode="2440" timeZone="+11:00"/><entry id="id.LOC80" term="Australia" countryISOcode="AU" region="New South Wales" city="King Creek" latitude="-31.492370" longitude="152.756580" postalCode="2446" timeZone="+11:00"/><entry id="id.LOC81" term="Australia" countryISOcode="AU" region="New South Wales" city="Leura" latitude="-33.716670" longitude="150.333330" postalCode="2780" timeZone="+11:00"/><entry id="id.LOC82" term="Australia" countryISOcode="AU" region="New South Wales" city="Long Jetty" latitude="-33.366670" longitude="151.483330" postalCode="2261" timeZone="+11:00"/><entry id="id.LOC83" term="Australia" countryISOcode="AU" region="New South Wales" city="Macksville" latitude="-30.707800" longitude="152.920290" postalCode="2447" timeZone="+11:00"/><entry id="id.LOC84" term="Australia" countryISOcode="AU" region="New South Wales" city="Macquarie Park" latitude="-33.781050" longitude="151.127570" postalCode="2113" timeZone="+11:00"/><entry id="id.LOC85" term="Australia" countryISOcode="AU" region="New South Wales" city="Malua Bay" latitude="-35.793820" longitude="150.228330" postalCode="2536" timeZone="+11:00"/><entry id="id.LOC86" term="Australia" countryISOcode="AU" region="New South Wales" city="Mascot" latitude="-33.933330" longitude="151.200000" postalCode="1460" timeZone="+11:00"/><entry id="id.LOC87" term="Australia" countryISOcode="AU" region="New South Wales" city="McGraths Hill" latitude="-33.615510" longitude="150.833720" postalCode="2756" timeZone="+11:00"/><entry id="id.LOC88" term="Australia" countryISOcode="AU" region="New South Wales" city="Molong" latitude="-33.092330" longitude="148.870020" postalCode="2866" timeZone="+11:00"/><entry id="id.LOC89" term="Australia" countryISOcode="AU" region="New South Wales" city="Moss Vale" latitude="-34.553740" longitude="150.371160" postalCode="2577" timeZone="+11:00"/><entry id="id.LOC90" term="Australia" countryISOcode="AU" region="New South Wales" city="Mudgee" latitude="-32.594260" longitude="149.587100" postalCode="2850" timeZone="+11:00"/><entry id="id.LOC91" term="Australia" countryISOcode="AU" region="New South Wales" city="Mullumbimby" latitude="-28.552360" longitude="153.499560" postalCode="2482" timeZone="+11:00"/><entry id="id.LOC92" term="Australia" countryISOcode="AU" region="New South Wales" city="Mungindi" latitude="-28.977950" longitude="148.997540" postalCode="2406" timeZone="+11:00"/><entry id="id.LOC93" term="Australia" countryISOcode="AU" region="New South Wales" city="Murwillumbah" latitude="-28.327320" longitude="153.393390" postalCode="2484" timeZone="+11:00"/><entry id="id.LOC94" term="Australia" countryISOcode="AU" region="New South Wales" city="Nabiac" latitude="-32.098370" longitude="152.376270" postalCode="2312" timeZone="+11:00"/><entry id="id.LOC95" term="Australia" countryISOcode="AU" region="New South Wales" city="Nambucca Heads" latitude="-30.643180" longitude="153.008840" postalCode="2448" timeZone="+11:00"/><entry id="id.LOC96" term="Australia" countryISOcode="AU" region="New South Wales" city="Narrandera" latitude="-34.747520" longitude="146.550960" postalCode="2700" timeZone="+11:00"/><entry id="id.LOC97" term="Australia" countryISOcode="AU" region="New South Wales" city="Newcastle" latitude="-32.927150" longitude="151.776470" postalCode="2300" timeZone="+11:00"/><entry id="id.LOC98" term="Australia" countryISOcode="AU" region="New South Wales" city="Nowra" latitude="-34.884220" longitude="150.600360" postalCode="2541" timeZone="+11:00"/><entry id="id.LOC99" term="Australia" countryISOcode="AU" region="New South Wales" city="Orange" latitude="-33.283970" longitude="149.100180" postalCode="2800" timeZone="+11:00"/><entry id="id.LOC100" term="Australia" countryISOcode="AU" region="New South Wales" city="Parkes" latitude="-33.137200" longitude="148.175900" postalCode="2870" timeZone="+11:00"/><entry id="id.LOC101" term="Australia" countryISOcode="AU" region="New South Wales" city="Parramatta" latitude="-33.816670" longitude="151.000000" postalCode="2124" timeZone="+11:00"/><entry id="id.LOC102" term="Australia" countryISOcode="AU" region="New South Wales" city="Pennant Hills" latitude="-33.737830" longitude="151.072160" postalCode="2120" timeZone="+11:00"/><entry id="id.LOC103" term="Australia" countryISOcode="AU" region="New South Wales" city="Penrith" latitude="-33.758010" longitude="150.705440" postalCode="2751" timeZone="+11:00"/><entry id="id.LOC104" term="Australia" countryISOcode="AU" region="New South Wales" city="Port Macquarie" latitude="-31.430840" longitude="152.908940" postalCode="2444" timeZone="+11:00"/><entry id="id.LOC105" term="Australia" countryISOcode="AU" region="New South Wales" city="Queanbeyan" latitude="-35.354930" longitude="149.232000" postalCode="2620" timeZone="+11:00"/><entry id="id.LOC106" term="Australia" countryISOcode="AU" region="New South Wales" city="Quirindi" latitude="-31.507630" longitude="150.679020" postalCode="2343" timeZone="+11:00"/><entry id="id.LOC107" term="Australia" countryISOcode="AU" region="New South Wales" city="Red Rock" latitude="-29.984530" longitude="153.226230" postalCode="2456" timeZone="+11:00"/><entry id="id.LOC108" term="Australia" countryISOcode="AU" region="New South Wales" city="Richmond" latitude="-33.599560" longitude="150.751420" postalCode="2755" timeZone="+11:00"/><entry id="id.LOC109" term="Australia" countryISOcode="AU" region="New South Wales" city="Saint Peters" latitude="-33.916670" longitude="151.183330" postalCode="2015" timeZone="+11:00"/><entry id="id.LOC110" term="Australia" countryISOcode="AU" region="New South Wales" city="Sanctuary Point" latitude="-35.103610" longitude="150.626670" postalCode="2540" timeZone="+11:00"/><entry id="id.LOC111" term="Australia" countryISOcode="AU" region="New South Wales" city="Sandy Beach" latitude="-30.146810" longitude="153.192380" postalCode="2456" timeZone="+11:00"/><entry id="id.LOC112" term="Australia" countryISOcode="AU" region="New South Wales" city="Shellharbour" latitude="-34.583330" longitude="150.866670" postalCode="2529" timeZone="+11:00"/><entry id="id.LOC113" term="Australia" countryISOcode="AU" region="New South Wales" city="Shoalhaven Heads" latitude="-34.850860" longitude="150.745120" postalCode="2535" timeZone="+11:00"/><entry id="id.LOC114" term="Australia" countryISOcode="AU" region="New South Wales" city="Singleton" latitude="-32.567420" longitude="151.166030" postalCode="2330" timeZone="+11:00"/><entry id="id.LOC115" term="Australia" countryISOcode="AU" region="New South Wales" city="Spencer" latitude="-33.450000" longitude="151.150000" postalCode="2775" timeZone="+11:00"/><entry id="id.LOC116" term="Australia" countryISOcode="AU" region="New South Wales" city="Springwood" latitude="-33.700000" longitude="150.550000" postalCode="2776" timeZone="+11:00"/><entry id="id.LOC117" term="Australia" countryISOcode="AU" region="New South Wales" city="St Leonards" latitude="-33.823440" longitude="151.198360" postalCode="2065" timeZone="+11:00"/><entry id="id.LOC118" term="Australia" countryISOcode="AU" region="New South Wales" city="Suffolk Park" latitude="-28.683330" longitude="153.616670" postalCode="2481" timeZone="+11:00"/><entry id="id.LOC119" term="Australia" countryISOcode="AU" region="New South Wales" city="Sydney" latitude="-33.867850" longitude="151.207320" postalCode="2000" timeZone="+11:00"/><entry id="id.LOC120" term="Australia" countryISOcode="AU" region="New South Wales" city="Taree" latitude="-31.910990" longitude="152.453870" postalCode="2430" timeZone="+11:00"/><entry id="id.LOC121" term="Australia" countryISOcode="AU" region="New South Wales" city="Telegraph Point" latitude="-31.333330" longitude="152.800000" postalCode="2441" timeZone="+11:00"/><entry id="id.LOC122" term="Australia" countryISOcode="AU" region="New South Wales" city="Temora" latitude="-34.448340" longitude="147.535580" postalCode="2666" timeZone="+11:00"/><entry id="id.LOC123" term="Australia" countryISOcode="AU" region="New South Wales" city="Tuggerah" latitude="-33.316670" longitude="151.416670" postalCode="2259" timeZone="+11:00"/><entry id="id.LOC124" term="Australia" countryISOcode="AU" region="New South Wales" city="Tuncurry" latitude="-32.174430" longitude="152.498760" postalCode="2428" timeZone="+11:00"/><entry id="id.LOC125" term="Australia" countryISOcode="AU" region="New South Wales" city="Valla Beach" latitude="-30.592590" longitude="153.011310" postalCode="2448" timeZone="+11:00"/><entry id="id.LOC126" term="Australia" countryISOcode="AU" region="New South Wales" city="Wardell" latitude="-28.948930" longitude="153.465060" postalCode="2477" timeZone="+11:00"/><entry id="id.LOC127" term="Australia" countryISOcode="AU" region="New South Wales" city="Welby" latitude="-34.439250" longitude="150.430620" postalCode="2575" timeZone="+11:00"/><entry id="id.LOC128" term="Australia" countryISOcode="AU" region="New South Wales" city="West Tamworth" latitude="-31.100000" longitude="150.916670" postalCode="2340" timeZone="+11:00"/><entry id="id.LOC129" term="Australia" countryISOcode="AU" region="New South Wales" city="Wilberforce" latitude="-33.562560" longitude="150.837840" postalCode="2756" timeZone="+11:00"/><entry id="id.LOC130" term="Australia" countryISOcode="AU" region="New South Wales" city="Wingham" latitude="-31.866760" longitude="152.369890" postalCode="2429" timeZone="+11:00"/><entry id="id.LOC131" term="Australia" countryISOcode="AU" region="New South Wales" city="Wollongong" latitude="-34.424000" longitude="150.893450" postalCode="2500" timeZone="+11:00"/><entry id="id.LOC132" term="Australia" countryISOcode="AU" region="New South Wales" city="Woodstock" latitude="-33.744570" longitude="148.848920" postalCode="2793" timeZone="+11:00"/><entry id="id.LOC133" term="Australia" countryISOcode="AU" region="New South Wales" city="Yanco" latitude="-34.598270" longitude="146.412370" postalCode="2703" timeZone="+11:00"/><entry id="id.LOC134" term="Australia" countryISOcode="AU" region="Northern Territory" city="Darwin" latitude="-12.461130" longitude="130.841850" postalCode="800" timeZone="+09:30"/><entry id="id.LOC135" term="Australia" countryISOcode="AU" region="Northern Territory" city="Farrar" latitude="-12.480280" longitude="130.998200" postalCode="830" timeZone="+09:30"/><entry id="id.LOC136" term="Australia" countryISOcode="AU" region="Queensland" city="Baddow" latitude="-25.516670" longitude="152.683330" postalCode="4650" timeZone="+10:00"/><entry id="id.LOC137" term="Australia" countryISOcode="AU" region="Queensland" city="Banksia Beach" latitude="-27.040270" longitude="153.143900" postalCode="4507" timeZone="+10:00"/><entry id="id.LOC138" term="Australia" countryISOcode="AU" region="Queensland" city="Beerwah" latitude="-26.858810" longitude="152.961440" postalCode="4519" timeZone="+10:00"/><entry id="id.LOC139" term="Australia" countryISOcode="AU" region="Queensland" city="Bingil Bay" latitude="-17.833170" longitude="146.098690" postalCode="4852" timeZone="+10:00"/><entry id="id.LOC140" term="Australia" countryISOcode="AU" region="Queensland" city="Boodua" latitude="-27.383330" longitude="151.833330" postalCode="4352" timeZone="+10:00"/><entry id="id.LOC141" term="Australia" countryISOcode="AU" region="Queensland" city="Brisbane" latitude="-27.467940" longitude="153.028090" postalCode="4000" timeZone="+10:00"/><entry id="id.LOC142" term="Australia" countryISOcode="AU" region="Queensland" city="Bundaberg" latitude="-24.866210" longitude="152.347900" postalCode="4670" timeZone="+10:00"/><entry id="id.LOC143" term="Australia" countryISOcode="AU" region="Queensland" city="Burnside" latitude="-26.632550" longitude="152.940630" postalCode="4560" timeZone="+10:00"/><entry id="id.LOC144" term="Australia" countryISOcode="AU" region="Queensland" city="Capella" latitude="-23.085310" longitude="148.024280" postalCode="4723" timeZone="+10:00"/><entry id="id.LOC145" term="Australia" countryISOcode="AU" region="Queensland" city="Clifton Beach" latitude="-16.763130" longitude="145.671670" postalCode="4879" timeZone="+10:00"/><entry id="id.LOC146" term="Australia" countryISOcode="AU" region="Queensland" city="Currajong" latitude="-19.275660" longitude="146.779180" postalCode="4812" timeZone="+10:00"/><entry id="id.LOC147" term="Australia" countryISOcode="AU" region="Queensland" city="Doolbi" latitude="-25.233330" longitude="152.300000" postalCode="4660" timeZone="+10:00"/><entry id="id.LOC148" term="Australia" countryISOcode="AU" region="Queensland" city="Eagle Farm" latitude="-27.430590" longitude="153.090620" postalCode="4009" timeZone="+10:00"/><entry id="id.LOC149" term="Australia" countryISOcode="AU" region="Queensland" city="Emerald" latitude="-23.522960" longitude="148.157840" postalCode="4720" timeZone="+10:00"/><entry id="id.LOC150" term="Australia" countryISOcode="AU" region="Queensland" city="Gatton" latitude="-27.558730" longitude="152.276180" postalCode="4343" timeZone="+10:00"/><entry id="id.LOC151" term="Australia" countryISOcode="AU" region="Queensland" city="Gladstone" latitude="-23.847610" longitude="151.256350" postalCode="4680" timeZone="+10:00"/><entry id="id.LOC152" term="Australia" countryISOcode="AU" region="Queensland" city="Gold Coast" latitude="-28.000290" longitude="153.430880" postalCode="4217" timeZone="+10:00"/><entry id="id.LOC153" term="Australia" countryISOcode="AU" region="Queensland" city="Hervey Bay" latitude="-25.283300" longitude="152.833300" postalCode="4655" timeZone="+10:00"/><entry id="id.LOC154" term="Australia" countryISOcode="AU" region="Queensland" city="Manly" latitude="-27.466670" longitude="153.183330" postalCode="4179" timeZone="+10:00"/><entry id="id.LOC155" term="Australia" countryISOcode="AU" region="Queensland" city="Maroochydore" latitude="-26.660080" longitude="153.099530" postalCode="4558" timeZone="+10:00"/><entry id="id.LOC156" term="Australia" countryISOcode="AU" region="Queensland" city="Maryborough" latitude="-25.540730" longitude="152.704930" postalCode="4650" timeZone="+10:00"/><entry id="id.LOC157" term="Australia" countryISOcode="AU" region="Queensland" city="Menzies" latitude="-20.718090" longitude="139.497170" postalCode="4825" timeZone="+10:00"/><entry id="id.LOC158" term="Australia" countryISOcode="AU" region="Queensland" city="Moranbah" latitude="-22.001630" longitude="148.046610" postalCode="4744" timeZone="+10:00"/><entry id="id.LOC159" term="Australia" countryISOcode="AU" region="Queensland" city="Nebo" latitude="-21.683330" longitude="148.683330" postalCode="4742" timeZone="+10:00"/><entry id="id.LOC160" term="Australia" countryISOcode="AU" region="Queensland" city="Noosaville" latitude="-26.400000" longitude="153.066670" postalCode="4566" timeZone="+10:00"/><entry id="id.LOC161" term="Australia" countryISOcode="AU" region="Queensland" city="Peregian Beach" latitude="-26.481000" longitude="153.096000" postalCode="4573" timeZone="+10:00"/><entry id="id.LOC162" term="Australia" countryISOcode="AU" region="Queensland" city="Red Hill" latitude="-20.316670" longitude="148.500000" postalCode="4800" timeZone="+10:00"/><entry id="id.LOC163" term="Australia" countryISOcode="AU" region="Queensland" city="Rockhampton" latitude="-23.380320" longitude="150.505950" postalCode="4700" timeZone="+10:00"/><entry id="id.LOC164" term="Australia" countryISOcode="AU" region="Queensland" city="Roma" latitude="-26.567410" longitude="148.787510" postalCode="4455" timeZone="+10:00"/><entry id="id.LOC165" term="Australia" countryISOcode="AU" region="Queensland" city="Tin Can Bay" latitude="-25.916460" longitude="153.005840" postalCode="4580" timeZone="+10:00"/><entry id="id.LOC166" term="Australia" countryISOcode="AU" region="Queensland" city="Townsville" latitude="-19.266390" longitude="146.805700" postalCode="4810" timeZone="+10:00"/><entry id="id.LOC167" term="Australia" countryISOcode="AU" region="Queensland" city="Victory Heights" latitude="-26.172330" longitude="152.689540" postalCode="4570" timeZone="+10:00"/><entry id="id.LOC168" term="Australia" countryISOcode="AU" region="Queensland" city="Wallangarra" latitude="-28.923890" longitude="151.928160" postalCode="4383" timeZone="+10:00"/><entry id="id.LOC169" term="Australia" countryISOcode="AU" region="Queensland" city="Woolloongabba" latitude="-27.488550" longitude="153.036550" postalCode="4102" timeZone="+10:00"/><entry id="id.LOC170" term="Australia" countryISOcode="AU" region="South Australia" city="Adelaide" latitude="-34.928660" longitude="138.598630" postalCode="5000" timeZone="+10:30"/><entry id="id.LOC171" term="Australia" countryISOcode="AU" region="South Australia" city="Balaklava" latitude="-34.145420" longitude="138.411480" postalCode="5461" timeZone="+10:30"/><entry id="id.LOC172" term="Australia" countryISOcode="AU" region="South Australia" city="Callington" latitude="-35.119770" longitude="139.041400" postalCode="5254" timeZone="+10:30"/><entry id="id.LOC173" term="Australia" countryISOcode="AU" region="South Australia" city="Encounter Bay" latitude="-35.583330" longitude="138.600000" postalCode="5211" timeZone="+10:30"/><entry id="id.LOC174" term="Australia" countryISOcode="AU" region="South Australia" city="Gladstone" latitude="-33.266950" longitude="138.356550" postalCode="5473" timeZone="+10:30"/><entry id="id.LOC175" term="Australia" countryISOcode="AU" region="South Australia" city="Kadina" latitude="-33.964950" longitude="137.716340" postalCode="5554" timeZone="+10:30"/><entry id="id.LOC176" term="Australia" countryISOcode="AU" region="South Australia" city="Kanmantoo" latitude="-35.066670" longitude="139.016670" postalCode="5252" timeZone="+10:30"/><entry id="id.LOC177" term="Australia" countryISOcode="AU" region="South Australia" city="Kapunda" latitude="-34.338710" longitude="138.916440" postalCode="5373" timeZone="+10:30"/><entry id="id.LOC178" term="Australia" countryISOcode="AU" region="South Australia" city="Koppio" latitude="-34.416670" longitude="135.850000" postalCode="5630" timeZone="+10:30"/><entry id="id.LOC179" term="Australia" countryISOcode="AU" region="South Australia" city="Mount Gambier" latitude="-37.831800" longitude="140.779190" postalCode="5290" timeZone="+10:30"/><entry id="id.LOC180" term="Australia" countryISOcode="AU" region="South Australia" city="Mullaquana" latitude="-33.057540" longitude="137.545930" postalCode="5608" timeZone="+10:30"/><entry id="id.LOC181" term="Australia" countryISOcode="AU" region="South Australia" city="Port Augusta" latitude="-32.495970" longitude="137.772810" postalCode="5700" timeZone="+10:30"/><entry id="id.LOC182" term="Australia" countryISOcode="AU" region="South Australia" city="Port Lincoln" latitude="-34.726250" longitude="135.874420" postalCode="5606" timeZone="+10:30"/><entry id="id.LOC183" term="Australia" countryISOcode="AU" region="South Australia" city="Port Paterson" latitude="-32.554250" longitude="137.830930" postalCode="5710" timeZone="+10:30"/><entry id="id.LOC184" term="Australia" countryISOcode="AU" region="South Australia" city="Port Pirie" latitude="-33.191760" longitude="138.017460" postalCode="5540" timeZone="+10:30"/><entry id="id.LOC185" term="Australia" countryISOcode="AU" region="South Australia" city="Quorn" latitude="-32.346760" longitude="138.041760" postalCode="5433" timeZone="+10:30"/><entry id="id.LOC186" term="Australia" countryISOcode="AU" region="South Australia" city="Roxby Downs" latitude="-30.563050" longitude="136.895460" postalCode="5725" timeZone="+10:30"/><entry id="id.LOC187" term="Australia" countryISOcode="AU" region="South Australia" city="Waikerie" latitude="-34.181780" longitude="139.985520" postalCode="5330" timeZone="+10:30"/><entry id="id.LOC188" term="Australia" countryISOcode="AU" region="South Australia" city="Wallaroo" latitude="-33.938810" longitude="137.633650" postalCode="5556" timeZone="+10:30"/><entry id="id.LOC189" term="Australia" countryISOcode="AU" region="South Australia" city="Whyalla" latitude="-33.032680" longitude="137.564840" postalCode="5600" timeZone="+10:30"/><entry id="id.LOC190" term="Australia" countryISOcode="AU" region="Tasmania" city="Devonport" latitude="-41.176950" longitude="146.351520" postalCode="7307" timeZone="+11:00"/><entry id="id.LOC191" term="Australia" countryISOcode="AU" region="Tasmania" city="Hobart" latitude="-42.879360" longitude="147.329410" postalCode="7000" timeZone="+11:00"/><entry id="id.LOC192" term="Australia" countryISOcode="AU" region="Tasmania" city="Launceston" latitude="-41.438760" longitude="147.134670" postalCode="7250" timeZone="+11:00"/><entry id="id.LOC193" term="Australia" countryISOcode="AU" region="Tasmania" city="Waratah" latitude="-41.443670" longitude="145.532870" postalCode="7321" timeZone="+11:00"/><entry id="id.LOC194" term="Australia" countryISOcode="AU" region="Victoria" city="Ballarat" latitude="-37.566220" longitude="143.849570" postalCode="3353" timeZone="+11:00"/><entry id="id.LOC195" term="Australia" countryISOcode="AU" region="Victoria" city="Balnarring" latitude="-38.366670" longitude="145.133330" postalCode="3926" timeZone="+11:00"/><entry id="id.LOC196" term="Australia" countryISOcode="AU" region="Victoria" city="Bandiana" latitude="-36.150000" longitude="146.933330" postalCode="3694" timeZone="+11:00"/><entry id="id.LOC197" term="Australia" countryISOcode="AU" region="Victoria" city="Baranduda" latitude="-36.200000" longitude="146.966670" postalCode="3691" timeZone="+11:00"/><entry id="id.LOC198" term="Australia" countryISOcode="AU" region="Victoria" city="Bendigo" latitude="-36.758180" longitude="144.280240" postalCode="3550" timeZone="+11:00"/><entry id="id.LOC199" term="Australia" countryISOcode="AU" region="Victoria" city="Clayton North" latitude="-37.916670" longitude="145.133330" postalCode="3168" timeZone="+11:00"/><entry id="id.LOC200" term="Australia" countryISOcode="AU" region="Victoria" city="Cockatoo" latitude="-37.936770" longitude="145.493760" postalCode="3781" timeZone="+11:00"/><entry id="id.LOC201" term="Australia" countryISOcode="AU" region="Victoria" city="Doncaster" latitude="-37.788280" longitude="145.123730" postalCode="3108" timeZone="+11:00"/><entry id="id.LOC202" term="Australia" countryISOcode="AU" region="Victoria" city="Geelong" latitude="-38.147110" longitude="144.360690" postalCode="3220" timeZone="+11:00"/><entry id="id.LOC203" term="Australia" countryISOcode="AU" region="Victoria" city="Katamatite" latitude="-36.075890" longitude="145.687240" postalCode="3649" timeZone="+11:00"/><entry id="id.LOC204" term="Australia" countryISOcode="AU" region="Victoria" city="Kingston" latitude="-37.350000" longitude="143.966670" postalCode="3364" timeZone="+11:00"/><entry id="id.LOC205" term="Australia" countryISOcode="AU" region="Victoria" city="Kyneton" latitude="-37.244440" longitude="144.451480" postalCode="3444" timeZone="+11:00"/><entry id="id.LOC206" term="Australia" countryISOcode="AU" region="Victoria" city="Laceby" latitude="-36.433330" longitude="146.300000" postalCode="3675" timeZone="+11:00"/><entry id="id.LOC207" term="Australia" countryISOcode="AU" region="Victoria" city="Marong" latitude="-36.733330" longitude="144.133330" postalCode="3515" timeZone="+11:00"/><entry id="id.LOC208" term="Australia" countryISOcode="AU" region="Victoria" city="Melbourne" latitude="-37.814000" longitude="144.963320" postalCode="8010" timeZone="+11:00"/><entry id="id.LOC209" term="Australia" countryISOcode="AU" region="Victoria" city="Mildura" latitude="-34.185510" longitude="142.162510" postalCode="3500" timeZone="+11:00"/><entry id="id.LOC210" term="Australia" countryISOcode="AU" region="Victoria" city="Morwell" latitude="-38.234760" longitude="146.394990" postalCode="3840" timeZone="+11:00"/><entry id="id.LOC211" term="Australia" countryISOcode="AU" region="Victoria" city="Nathalia" latitude="-36.057720" longitude="145.204060" postalCode="3638" timeZone="+11:00"/><entry id="id.LOC212" term="Australia" countryISOcode="AU" region="Victoria" city="Newtown" latitude="-37.700000" longitude="143.650000" postalCode="3351" timeZone="+11:00"/><entry id="id.LOC213" term="Australia" countryISOcode="AU" region="Victoria" city="Nhill" latitude="-36.333330" longitude="141.650060" postalCode="3418" timeZone="+11:00"/><entry id="id.LOC214" term="Australia" countryISOcode="AU" region="Victoria" city="Nyora" latitude="-38.333640" longitude="145.672480" postalCode="3987" timeZone="+11:00"/><entry id="id.LOC215" term="Australia" countryISOcode="AU" region="Victoria" city="Oxley" latitude="-36.450000" longitude="146.366670" postalCode="3678" timeZone="+11:00"/><entry id="id.LOC216" term="Australia" countryISOcode="AU" region="Victoria" city="Pearcedale" latitude="-38.203000" longitude="145.234880" postalCode="3912" timeZone="+11:00"/><entry id="id.LOC217" term="Australia" countryISOcode="AU" region="Victoria" city="Port Fairy" latitude="-38.385350" longitude="142.237100" postalCode="3284" timeZone="+11:00"/><entry id="id.LOC218" term="Australia" countryISOcode="AU" region="Victoria" city="Port Melbourne" latitude="-37.839610" longitude="144.942280" postalCode="3207" timeZone="+11:00"/><entry id="id.LOC219" term="Australia" countryISOcode="AU" region="Victoria" city="Richmond" latitude="-37.818190" longitude="145.001760" postalCode="3121" timeZone="+11:00"/><entry id="id.LOC220" term="Australia" countryISOcode="AU" region="Victoria" city="Riddell" latitude="-37.460470" longitude="144.679600" postalCode="3431" timeZone="+11:00"/><entry id="id.LOC221" term="Australia" countryISOcode="AU" region="Victoria" city="Robin Hood" latitude="-38.083330" longitude="145.833330" postalCode="3816" timeZone="+11:00"/><entry id="id.LOC222" term="Australia" countryISOcode="AU" region="Victoria" city="Saint James" latitude="-36.266670" longitude="145.900000" postalCode="3727" timeZone="+11:00"/><entry id="id.LOC223" term="Australia" countryISOcode="AU" region="Victoria" city="Swan Hill" latitude="-35.337810" longitude="143.554400" postalCode="3585" timeZone="+11:00"/><entry id="id.LOC224" term="Australia" countryISOcode="AU" region="Victoria" city="Tawonga" latitude="-36.689540" longitude="147.142120" postalCode="3697" timeZone="+11:00"/><entry id="id.LOC225" term="Australia" countryISOcode="AU" region="Victoria" city="Wahgunyah" latitude="-36.016670" longitude="146.400000" postalCode="3687" timeZone="+11:00"/><entry id="id.LOC226" term="Australia" countryISOcode="AU" region="Victoria" city="Wangaratta" latitude="-36.358460" longitude="146.320560" postalCode="3677" timeZone="+11:00"/><entry id="id.LOC227" term="Australia" countryISOcode="AU" region="Victoria" city="Wodonga" latitude="-36.121790" longitude="146.888090" postalCode="3690" timeZone="+11:00"/><entry id="id.LOC228" term="Australia" countryISOcode="AU" region="Victoria" city="Yarrawonga" latitude="-36.019230" longitude="145.999720" postalCode="3730" timeZone="+11:00"/><entry id="id.LOC229" term="Australia" countryISOcode="AU" region="Western Australia" city="Albany" latitude="-35.003100" longitude="117.865950" postalCode="6330" timeZone="+08:00"/><entry id="id.LOC230" term="Australia" countryISOcode="AU" region="Western Australia" city="Broadwater" latitude="-33.663040" longitude="115.284200" postalCode="6280" timeZone="+08:00"/><entry id="id.LOC231" term="Australia" countryISOcode="AU" region="Western Australia" city="Bunbury" latitude="-33.327110" longitude="115.641370" postalCode="6230" timeZone="+08:00"/><entry id="id.LOC232" term="Australia" countryISOcode="AU" region="Western Australia" city="Busselton" latitude="-33.652490" longitude="115.345500" postalCode="6280" timeZone="+08:00"/><entry id="id.LOC233" term="Australia" countryISOcode="AU" region="Western Australia" city="Geraldton" latitude="-28.778970" longitude="114.614590" postalCode="6530" timeZone="+08:00"/><entry id="id.LOC234" term="Australia" countryISOcode="AU" region="Western Australia" city="Joondalup" latitude="-31.744450" longitude="115.768350" postalCode="6027" timeZone="+08:00"/><entry id="id.LOC235" term="Australia" countryISOcode="AU" region="Western Australia" city="Karratha" latitude="-20.737650" longitude="116.846290" postalCode="6714" timeZone="+08:00"/><entry id="id.LOC236" term="Australia" countryISOcode="AU" region="Western Australia" city="King River" latitude="-34.929720" longitude="117.912780" postalCode="6330" timeZone="+08:00"/><entry id="id.LOC237" term="Australia" countryISOcode="AU" region="Western Australia" city="Mandurah" latitude="-32.526900" longitude="115.721700" postalCode="6210" timeZone="+08:00"/><entry id="id.LOC238" term="Australia" countryISOcode="AU" region="Western Australia" city="Midland" latitude="-31.900000" longitude="116.000000" postalCode="6055" timeZone="+08:00"/><entry id="id.LOC239" term="Australia" countryISOcode="AU" region="Western Australia" city="Noranda" latitude="-31.873330" longitude="115.899010" postalCode="6062" timeZone="+08:00"/><entry id="id.LOC240" term="Australia" countryISOcode="AU" region="Western Australia" city="Northam" latitude="-31.649320" longitude="116.674230" postalCode="6401" timeZone="+08:00"/><entry id="id.LOC241" term="Australia" countryISOcode="AU" region="Western Australia" city="Perth" latitude="-31.952240" longitude="115.861400" postalCode="6003" timeZone="+08:00"/><entry id="id.LOC242" term="Australia" countryISOcode="AU" region="Western Australia" city="Port Hedland" latitude="-20.312150" longitude="118.610590" postalCode="6721" timeZone="+08:00"/><entry id="id.LOC243" term="Australia" countryISOcode="AU" region="Western Australia" city="Port Kennedy" latitude="-32.373420" longitude="115.751500" postalCode="6172" timeZone="+08:00"/><entry id="id.LOC244" term="Australia" countryISOcode="AU" region="Western Australia" city="Rangeway" latitude="-28.786650" longitude="114.630590" postalCode="6530" timeZone="+08:00"/><entry id="id.LOC245" term="Australia" countryISOcode="AU" region="Western Australia" city="Sunset Beach" latitude="-28.719070" longitude="114.622970" postalCode="6530" timeZone="+08:00"/><entry id="id.LOC246" term="Australia" countryISOcode="AU" region="Western Australia" city="Williamstown" latitude="-30.750000" longitude="121.483330" postalCode="6430" timeZone="+08:00"/><entry id="id.LOC247" term="Austria" countryISOcode="AT" region="-" city="-" latitude="48.208490" longitude="16.372080" postalCode="" timeZone="+01:00"/><entry id="id.LOC248" term="Austria" countryISOcode="AT" region="Karnten" city="Feldkirchen in Karnten" latitude="46.716670" longitude="14.100000" postalCode="9560" timeZone="+01:00"/><entry id="id.LOC249" term="Austria" countryISOcode="AT" region="Karnten" city="Gmuend" latitude="46.907220" longitude="13.529440" postalCode="3950" timeZone="+01:00"/><entry id="id.LOC250" term="Austria" countryISOcode="AT" region="Karnten" city="Klagenfurt am Woerthersee" latitude="46.624720" longitude="14.305280" postalCode="9201" timeZone="+01:00"/><entry id="id.LOC251" term="Austria" countryISOcode="AT" region="Niederosterreich" city="Behamberg" latitude="48.016670" longitude="14.483330" postalCode="4441" timeZone="+01:00"/><entry id="id.LOC252" term="Austria" countryISOcode="AT" region="Niederosterreich" city="Gostling an der Ybbs" latitude="47.800000" longitude="14.916670" postalCode="3345" timeZone="+01:00"/><entry id="id.LOC253" term="Austria" countryISOcode="AT" region="Niederosterreich" city="Thaya" latitude="48.854890" longitude="15.289020" postalCode="3843" timeZone="+01:00"/><entry id="id.LOC254" term="Austria" countryISOcode="AT" region="Oberosterreich" city="Altheim" latitude="48.251540" longitude="13.234060" postalCode="4951" timeZone="+01:00"/><entry id="id.LOC255" term="Austria" countryISOcode="AT" region="Oberosterreich" city="Gmunden" latitude="47.918870" longitude="13.797540" postalCode="4810" timeZone="+01:00"/><entry id="id.LOC256" term="Austria" countryISOcode="AT" region="Oberosterreich" city="Grieskirchen" latitude="48.233330" longitude="13.833330" postalCode="4713" timeZone="+01:00"/><entry id="id.LOC257" term="Austria" countryISOcode="AT" region="Oberosterreich" city="Linz" latitude="48.306390" longitude="14.286110" postalCode="4040" timeZone="+01:00"/><entry id="id.LOC258" term="Austria" countryISOcode="AT" region="Oberosterreich" city="Ried im Innkreis" latitude="48.211230" longitude="13.488550" postalCode="4941" timeZone="+01:00"/><entry id="id.LOC259" term="Austria" countryISOcode="AT" region="Steiermark" city="Grambach" latitude="47.016670" longitude="15.500000" postalCode="8074" timeZone="+01:00"/><entry id="id.LOC260" term="Austria" countryISOcode="AT" region="Wien" city="Vienna" latitude="48.208490" longitude="16.372080" postalCode="1010" timeZone="+01:00"/><entry id="id.LOC261" term="Azerbaijan" countryISOcode="AZ" region="Astara" city="Astara" latitude="38.455980" longitude="48.874980" postalCode="AZ 0703" timeZone="+04:00"/><entry id="id.LOC262" term="Azerbaijan" countryISOcode="AZ" region="Baki" city="Baku" latitude="40.377670" longitude="49.892010" postalCode="AZ 1151" timeZone="+04:00"/><entry id="id.LOC263" term="Azerbaijan" countryISOcode="AZ" region="Barda" city="Barda" latitude="40.374440" longitude="47.126670" postalCode="AZ 0912" timeZone="+04:00"/><entry id="id.LOC264" term="Azerbaijan" countryISOcode="AZ" region="Daskasan" city="Yukhary-Dashkesan" latitude="40.494720" longitude="46.077220" postalCode="AZ 1600" timeZone="+04:00"/><entry id="id.LOC265" term="Azerbaijan" countryISOcode="AZ" region="Ganca" city="Ganja" latitude="40.682780" longitude="46.360560" postalCode="AZ 2024" timeZone="+04:00"/><entry id="id.LOC266" term="Azerbaijan" countryISOcode="AZ" region="Lankaran" city="Lankaran" latitude="38.722620" longitude="48.814660" postalCode="AZ 4221" timeZone="+04:00"/><entry id="id.LOC267" term="Azerbaijan" countryISOcode="AZ" region="Neftcala" city="Neftcala" latitude="39.374170" longitude="49.247220" postalCode="AZ 4725" timeZone="+04:00"/><entry id="id.LOC268" term="Azerbaijan" countryISOcode="AZ" region="Saki" city="Sheki" latitude="41.191940" longitude="47.170560" postalCode="AZ 5537" timeZone="+04:00"/><entry id="id.LOC269" term="Azerbaijan" countryISOcode="AZ" region="Sirvan" city="Sirvan" latitude="39.937880" longitude="48.928550" postalCode="AZ 5429" timeZone="+04:00"/><entry id="id.LOC270" term="Azerbaijan" countryISOcode="AZ" region="Sumqayit" city="Sumqayit" latitude="40.589720" longitude="49.668610" postalCode="AZ 0000" timeZone="+04:00"/><entry id="id.LOC271" term="Azerbaijan" countryISOcode="AZ" region="Yevlax" city="Yevlakh" latitude="40.618320" longitude="47.150140" postalCode="AZ 6612" timeZone="+04:00"/><entry id="id.LOC272" term="Bahrain" countryISOcode="BH" region="Al 'Asimah" city="Manama" latitude="26.215360" longitude="50.583200" postalCode="" timeZone="+03:00"/><entry id="id.LOC273" term="Belarus" countryISOcode="BY" region="Horad Minsk" city="Minsk" latitude="53.900000" longitude="27.566700" postalCode="" timeZone="+03:00"/><entry id="id.LOC274" term="Belarus" countryISOcode="BY" region="Hrodzenskaya voblasts'" city="Astravyets" latitude="54.613780" longitude="25.955370" postalCode="" timeZone="+03:00"/><entry id="id.LOC275" term="Belarus" countryISOcode="BY" region="Hrodzenskaya voblasts'" city="Dzyatlava" latitude="53.463100" longitude="25.406800" postalCode="" timeZone="+03:00"/><entry id="id.LOC276" term="Belarus" countryISOcode="BY" region="Hrodzenskaya voblasts'" city="Hrodna" latitude="53.688400" longitude="23.825800" postalCode="" timeZone="+03:00"/><entry id="id.LOC277" term="Belarus" countryISOcode="BY" region="Hrodzenskaya voblasts'" city="Lida" latitude="53.883330" longitude="25.299720" postalCode="" timeZone="+03:00"/><entry id="id.LOC278" term="Belarus" countryISOcode="BY" region="Hrodzenskaya voblasts'" city="Masty" latitude="53.412200" longitude="24.538700" postalCode="" timeZone="+03:00"/><entry id="id.LOC279" term="Belarus" countryISOcode="BY" region="Hrodzenskaya voblasts'" city="Slonim" latitude="53.092300" longitude="25.321050" postalCode="" timeZone="+03:00"/><entry id="id.LOC280" term="Belarus" countryISOcode="BY" region="Hrodzenskaya voblasts'" city="Smarhon'" latitude="54.479060" longitude="26.393400" postalCode="" timeZone="+03:00"/><entry id="id.LOC281" term="Belarus" countryISOcode="BY" region="Hrodzenskaya voblasts'" city="Vawkavysk" latitude="53.156100" longitude="24.451300" postalCode="" timeZone="+03:00"/><entry id="id.LOC282" term="Belarus" countryISOcode="BY" region="Mahilyowskaya voblasts'" city="Babruysk" latitude="53.141220" longitude="29.205350" postalCode="" timeZone="+03:00"/><entry id="id.LOC283" term="Belarus" countryISOcode="BY" region="Mahilyowskaya voblasts'" city="Mahilyow" latitude="53.914100" longitude="30.337640" postalCode="" timeZone="+03:00"/><entry id="id.LOC284" term="Belgium" countryISOcode="BE" region="-" city="-" latitude="50.850450" longitude="4.348780" postalCode="" timeZone="+01:00"/><entry id="id.LOC285" term="Belgium" countryISOcode="BE" region="Antwerpen" city="Antwerpen" latitude="51.219890" longitude="4.403460" postalCode="2660" timeZone="+01:00"/><entry id="id.LOC286" term="Belgium" countryISOcode="BE" region="Antwerpen" city="Geel" latitude="51.165570" longitude="4.989170" postalCode="2440" timeZone="+01:00"/><entry id="id.LOC287" term="Belgium" countryISOcode="BE" region="Antwerpen" city="Mechelen" latitude="51.025740" longitude="4.477620" postalCode="2800" timeZone="+01:00"/><entry id="id.LOC288" term="Belgium" countryISOcode="BE" region="Brabant wallon" city="Louvain-la-Neuve" latitude="50.668290" longitude="4.614430" postalCode="1348" timeZone="+01:00"/><entry id="id.LOC289" term="Belgium" countryISOcode="BE" region="Brussels Hoofdstedelijk Gewest" city="Brussels" latitude="50.850450" longitude="4.348780" postalCode="1348" timeZone="+01:00"/><entry id="id.LOC290" term="Belgium" countryISOcode="BE" region="Hainaut" city="Boussu" latitude="50.434170" longitude="3.794400" postalCode="7301" timeZone="+01:00"/><entry id="id.LOC291" term="Belgium" countryISOcode="BE" region="Hainaut" city="Charleroi" latitude="50.411360" longitude="4.444480" postalCode="6061" timeZone="+01:00"/><entry id="id.LOC292" term="Belgium" countryISOcode="BE" region="Hainaut" city="Mons" latitude="50.454130" longitude="3.952290" postalCode="7034" timeZone="+01:00"/><entry id="id.LOC293" term="Belgium" countryISOcode="BE" region="Liege" city="Liege" latitude="50.633730" longitude="5.567490" postalCode="4032" timeZone="+01:00"/><entry id="id.LOC294" term="Belgium" countryISOcode="BE" region="Limburg" city="Beringen" latitude="51.049540" longitude="5.226060" postalCode="3583" timeZone="+01:00"/><entry id="id.LOC295" term="Belgium" countryISOcode="BE" region="Limburg" city="Bilzen" latitude="50.873250" longitude="5.518400" postalCode="3746" timeZone="+01:00"/><entry id="id.LOC296" term="Belgium" countryISOcode="BE" region="Limburg" city="Bree" latitude="51.141520" longitude="5.596900" postalCode="3960" timeZone="+01:00"/><entry id="id.LOC297" term="Belgium" countryISOcode="BE" region="Limburg" city="Diepenbeek" latitude="50.907690" longitude="5.418750" postalCode="3590" timeZone="+01:00"/><entry id="id.LOC298" term="Belgium" countryISOcode="BE" region="Limburg" city="Dilsen-Stokkem" latitude="51.030199" longitude="5.700088" postalCode="3650" timeZone="+01:00"/><entry id="id.LOC299" term="Belgium" countryISOcode="BE" region="Limburg" city="Maasmechelen" latitude="50.965450" longitude="5.694520" postalCode="3630" timeZone="+01:00"/><entry id="id.LOC300" term="Belgium" countryISOcode="BE" region="Oost-Vlaanderen" city="Gent" latitude="51.050000" longitude="3.716670" postalCode="9052" timeZone="+01:00"/><entry id="id.LOC301" term="Belgium" countryISOcode="BE" region="Oost-Vlaanderen" city="Sint-Niklaas" latitude="51.165090" longitude="4.143700" postalCode="9112" timeZone="+01:00"/><entry id="id.LOC302" term="Belgium" countryISOcode="BE" region="Vlaams-Brabant" city="Diest" latitude="50.989230" longitude="5.050620" postalCode="3294" timeZone="+01:00"/><entry id="id.LOC303" term="Belgium" countryISOcode="BE" region="Vlaams-Brabant" city="Landen" latitude="50.752660" longitude="5.082000" postalCode="3404" timeZone="+01:00"/><entry id="id.LOC304" term="Belgium" countryISOcode="BE" region="Vlaams-Brabant" city="Leuven" latitude="50.879590" longitude="4.700930" postalCode="3018" timeZone="+01:00"/><entry id="id.LOC305" term="Belgium" countryISOcode="BE" region="Vlaams-Brabant" city="Zaventem" latitude="50.883650" longitude="4.472980" postalCode="1933" timeZone="+01:00"/><entry id="id.LOC306" term="Belgium" countryISOcode="BE" region="West-Vlaanderen" city="Blankenberge" latitude="51.313060" longitude="3.132270" postalCode="8370" timeZone="+01:00"/><entry id="id.LOC307" term="Belgium" countryISOcode="BE" region="West-Vlaanderen" city="De Panne" latitude="51.097930" longitude="2.593680" postalCode="8660" timeZone="+01:00"/><entry id="id.LOC308" term="Belgium" countryISOcode="BE" region="West-Vlaanderen" city="Kortrijk" latitude="50.828030" longitude="3.264870" postalCode="8511" timeZone="+01:00"/><entry id="id.LOC309" term="Belgium" countryISOcode="BE" region="West-Vlaanderen" city="Oostende" latitude="51.223390" longitude="2.911850" postalCode="8400" timeZone="+01:00"/><entry id="id.LOC310" term="Belgium" countryISOcode="BE" region="West-Vlaanderen" city="Roeselare" latitude="50.946530" longitude="3.122690" postalCode="8800" timeZone="+01:00"/><entry id="id.LOC311" term="Bolivia (Plurinational State of)" countryISOcode="BO" region="Santa Cruz" city="Santa Cruz de la Sierra" latitude="-17.800000" longitude="-63.166670" postalCode="" timeZone="-04:00"/><entry id="id.LOC312" term="Bosnia and Herzegovina" countryISOcode="BA" region="Brcko distrikt" city="Lukavac" latitude="44.821000" longitude="18.687300" postalCode="76100" timeZone="+01:00"/><entry id="id.LOC313" term="Bosnia and Herzegovina" countryISOcode="BA" region="Brcko distrikt" city="Vuksic Gornji" latitude="44.883300" longitude="18.664000" postalCode="76100" timeZone="+01:00"/><entry id="id.LOC314" term="Bosnia and Herzegovina" countryISOcode="BA" region="Federacija Bosne i Hercegovine" city="Banovici" latitude="44.405280" longitude="18.524170" postalCode="75275" timeZone="+01:00"/><entry id="id.LOC315" term="Bosnia and Herzegovina" countryISOcode="BA" region="Federacija Bosne i Hercegovine" city="Barice" latitude="44.540560" longitude="18.481110" postalCode="75304" timeZone="+01:00"/><entry id="id.LOC316" term="Bosnia and Herzegovina" countryISOcode="BA" region="Federacija Bosne i Hercegovine" city="Bihac" latitude="44.816940" longitude="15.870830" postalCode="77106" timeZone="+01:00"/><entry id="id.LOC317" term="Bosnia and Herzegovina" countryISOcode="BA" region="Federacija Bosne i Hercegovine" city="Bugojno" latitude="44.057220" longitude="17.450830" postalCode="70235" timeZone="+01:00"/><entry id="id.LOC318" term="Bosnia and Herzegovina" countryISOcode="BA" region="Federacija Bosne i Hercegovine" city="Cazin" latitude="44.966940" longitude="15.943060" postalCode="77220" timeZone="+01:00"/><entry id="id.LOC319" term="Bosnia and Herzegovina" countryISOcode="BA" region="Federacija Bosne i Hercegovine" city="Divicani" latitude="44.366670" longitude="17.326110" postalCode="70204" timeZone="+01:00"/><entry id="id.LOC320" term="Bosnia and Herzegovina" countryISOcode="BA" region="Federacija Bosne i Hercegovine" city="Fojnica" latitude="43.962500" longitude="17.898330" postalCode="71270" timeZone="+01:00"/><entry id="id.LOC321" term="Bosnia and Herzegovina" countryISOcode="BA" region="Federacija Bosne i Hercegovine" city="Gnojnica" latitude="44.620560" longitude="18.446670" postalCode="75309" timeZone="+01:00"/><entry id="id.LOC322" term="Bosnia and Herzegovina" countryISOcode="BA" region="Federacija Bosne i Hercegovine" city="Gracanica" latitude="43.733330" longitude="18.283330" postalCode="71212" timeZone="+01:00"/><entry id="id.LOC323" term="Bosnia and Herzegovina" countryISOcode="BA" region="Federacija Bosne i Hercegovine" city="Gromiljak" latitude="43.966670" longitude="18.053060" postalCode="71255" timeZone="+01:00"/><entry id="id.LOC324" term="Bosnia and Herzegovina" countryISOcode="BA" region="Federacija Bosne i Hercegovine" city="Grude" latitude="43.364170" longitude="17.420560" postalCode="88347" timeZone="+01:00"/><entry id="id.LOC325" term="Bosnia and Herzegovina" countryISOcode="BA" region="Federacija Bosne i Hercegovine" city="Hadzici" latitude="43.822220" longitude="18.206670" postalCode="71240" timeZone="+01:00"/><entry id="id.LOC326" term="Bosnia and Herzegovina" countryISOcode="BA" region="Federacija Bosne i Hercegovine" city="Jablanica" latitude="43.660280" longitude="17.761670" postalCode="88423" timeZone="+01:00"/><entry id="id.LOC327" term="Bosnia and Herzegovina" countryISOcode="BA" region="Federacija Bosne i Hercegovine" city="Jajce" latitude="44.342220" longitude="17.265560" postalCode="70000" timeZone="+01:00"/><entry id="id.LOC328" term="Bosnia and Herzegovina" countryISOcode="BA" region="Federacija Bosne i Hercegovine" city="Kiseljak" latitude="43.942500" longitude="18.076670" postalCode="71250" timeZone="+01:00"/><entry id="id.LOC329" term="Bosnia and Herzegovina" countryISOcode="BA" region="Federacija Bosne i Hercegovine" city="Livno" latitude="43.826940" longitude="17.007780" postalCode="80208" timeZone="+01:00"/><entry id="id.LOC330" term="Bosnia and Herzegovina" countryISOcode="BA" region="Federacija Bosne i Hercegovine" city="Ljubuski" latitude="43.196940" longitude="17.545000" postalCode="88325" timeZone="+01:00"/><entry id="id.LOC331" term="Bosnia and Herzegovina" countryISOcode="BA" region="Federacija Bosne i Hercegovine" city="Lokvine" latitude="44.204720" longitude="17.856390" postalCode="72252" timeZone="+01:00"/><entry id="id.LOC332" term="Bosnia and Herzegovina" countryISOcode="BA" region="Federacija Bosne i Hercegovine" city="Mramor" latitude="44.591670" longitude="18.564440" postalCode="75212" timeZone="+01:00"/><entry id="id.LOC333" term="Bosnia and Herzegovina" countryISOcode="BA" region="Federacija Bosne i Hercegovine" city="Orahovica Donja" latitude="44.653060" longitude="18.370280" postalCode="75323" timeZone="+01:00"/><entry id="id.LOC334" term="Bosnia and Herzegovina" countryISOcode="BA" region="Federacija Bosne i Hercegovine" city="Orasje" latitude="45.035560" longitude="18.693330" postalCode="76270" timeZone="+01:00"/><entry id="id.LOC335" term="Bosnia and Herzegovina" countryISOcode="BA" region="Federacija Bosne i Hercegovine" city="Podhum" latitude="43.723060" longitude="17.001110" postalCode="80209" timeZone="+01:00"/><entry id="id.LOC336" term="Bosnia and Herzegovina" countryISOcode="BA" region="Federacija Bosne i Hercegovine" city="Polje" latitude="43.880560" longitude="18.074440" postalCode="71260" timeZone="+01:00"/><entry id="id.LOC337" term="Bosnia and Herzegovina" countryISOcode="BA" region="Federacija Bosne i Hercegovine" city="Puracic" latitude="44.546940" longitude="18.476670" postalCode="75305" timeZone="+01:00"/><entry id="id.LOC338" term="Bosnia and Herzegovina" countryISOcode="BA" region="Federacija Bosne i Hercegovine" city="Sarajevo" latitude="43.848640" longitude="18.356440" postalCode="71210" timeZone="+01:00"/><entry id="id.LOC339" term="Bosnia and Herzegovina" countryISOcode="BA" region="Federacija Bosne i Hercegovine" city="Stupari" latitude="44.314720" longitude="18.684170" postalCode="75283" timeZone="+01:00"/><entry id="id.LOC340" term="Bosnia and Herzegovina" countryISOcode="BA" region="Federacija Bosne i Hercegovine" city="Tomislavgrad" latitude="43.718060" longitude="17.226670" postalCode="71271" timeZone="+01:00"/><entry id="id.LOC341" term="Bosnia and Herzegovina" countryISOcode="BA" region="Federacija Bosne i Hercegovine" city="Travnik" latitude="44.226670" longitude="17.670560" postalCode="72278" timeZone="+01:00"/><entry id="id.LOC342" term="Bosnia and Herzegovina" countryISOcode="BA" region="Federacija Bosne i Hercegovine" city="Tuzla" latitude="44.542780" longitude="18.669440" postalCode="76215" timeZone="+01:00"/><entry id="id.LOC343" term="Bosnia and Herzegovina" countryISOcode="BA" region="Federacija Bosne i Hercegovine" city="Visoko" latitude="43.988890" longitude="18.178060" postalCode="71300" timeZone="+01:00"/><entry id="id.LOC344" term="Bosnia and Herzegovina" countryISOcode="BA" region="Federacija Bosne i Hercegovine" city="Vitez" latitude="44.154440" longitude="17.790280" postalCode="72250" timeZone="+01:00"/><entry id="id.LOC345" term="Bosnia and Herzegovina" countryISOcode="BA" region="Federacija Bosne i Hercegovine" city="Vitina" latitude="43.237500" longitude="17.483890" postalCode="88326" timeZone="+01:00"/><entry id="id.LOC346" term="Bosnia and Herzegovina" countryISOcode="BA" region="Federacija Bosne i Hercegovine" city="Zenica" latitude="44.201390" longitude="17.906390" postalCode="72112" timeZone="+01:00"/><entry id="id.LOC347" term="Bosnia and Herzegovina" countryISOcode="BA" region="Federacija Bosne i Hercegovine" city="Zivinice" latitude="44.449440" longitude="18.649720" postalCode="75270" timeZone="+01:00"/><entry id="id.LOC348" term="Bosnia and Herzegovina" countryISOcode="BA" region="Republika Srpska" city="Bijeljina" latitude="44.756940" longitude="19.216110" postalCode="76300" timeZone="+01:00"/><entry id="id.LOC349" term="Bosnia and Herzegovina" countryISOcode="BA" region="Republika Srpska" city="Doboj" latitude="44.734720" longitude="18.087780" postalCode="74000" timeZone="+01:00"/><entry id="id.LOC350" term="Bosnia and Herzegovina" countryISOcode="BA" region="Republika Srpska" city="Gradiska" latitude="45.141110" longitude="17.250000" postalCode="78400" timeZone="+01:00"/><entry id="id.LOC351" term="Bosnia and Herzegovina" countryISOcode="BA" region="Republika Srpska" city="Milici" latitude="44.171110" longitude="19.090280" postalCode="75446" timeZone="+01:00"/><entry id="id.LOC352" term="Bosnia and Herzegovina" countryISOcode="BA" region="Republika Srpska" city="Zvornik" latitude="44.386940" longitude="19.101390" postalCode="75400" timeZone="+01:00"/><entry id="id.LOC353" term="Brazil" countryISOcode="BR" region="Ceara" city="Fortaleza" latitude="-3.717220" longitude="-38.543060" postalCode="60000-000" timeZone="-03:00"/><entry id="id.LOC354" term="Brazil" countryISOcode="BR" region="Espirito Santo" city="Alegre" latitude="-20.763610" longitude="-41.533060" postalCode="29500-000" timeZone="-03:00"/><entry id="id.LOC355" term="Brazil" countryISOcode="BR" region="Minas Gerais" city="Belo Horizonte" latitude="-19.920830" longitude="-43.937780" postalCode="30000-000" timeZone="-03:00"/><entry id="id.LOC356" term="Brazil" countryISOcode="BR" region="Minas Gerais" city="Uberlandia" latitude="-18.918610" longitude="-48.277220" postalCode="38400-000" timeZone="-03:00"/><entry id="id.LOC357" term="Brazil" countryISOcode="BR" region="Piaui" city="Parnaiba" latitude="-2.904720" longitude="-41.776670" postalCode="64200-000" timeZone="-03:00"/><entry id="id.LOC358" term="Brazil" countryISOcode="BR" region="Sao Paulo" city="Sao Paulo" latitude="-23.547500" longitude="-46.636110" postalCode="01000-000" timeZone="-03:00"/><entry id="id.LOC359" term="Bulgaria" countryISOcode="BG" region="Blagoevgrad" city="Blagoevgrad" latitude="42.016670" longitude="23.100000" postalCode="2727" timeZone="+02:00"/><entry id="id.LOC360" term="Bulgaria" countryISOcode="BG" region="Kardzhali" city="Kardzhali" latitude="41.650000" longitude="25.366670" postalCode="6600" timeZone="+02:00"/><entry id="id.LOC361" term="Bulgaria" countryISOcode="BG" region="Montana" city="Lom" latitude="43.813890" longitude="23.236110" postalCode="3600" timeZone="+02:00"/><entry id="id.LOC362" term="Bulgaria" countryISOcode="BG" region="Pleven" city="Gulyantsi" latitude="43.633330" longitude="24.700000" postalCode="5960" timeZone="+02:00"/><entry id="id.LOC363" term="Bulgaria" countryISOcode="BG" region="Plovdiv" city="Asenovgrad" latitude="42.016670" longitude="24.866670" postalCode="4230" timeZone="+02:00"/><entry id="id.LOC364" term="Bulgaria" countryISOcode="BG" region="Plovdiv" city="Devin" latitude="41.743270" longitude="24.400030" postalCode="4800" timeZone="+02:00"/><entry id="id.LOC365" term="Bulgaria" countryISOcode="BG" region="Plovdiv" city="Kaloyanovo" latitude="42.350000" longitude="24.733330" postalCode="4173" timeZone="+02:00"/><entry id="id.LOC366" term="Bulgaria" countryISOcode="BG" region="Plovdiv" city="Karlovo" latitude="42.633330" longitude="24.800000" postalCode="4300" timeZone="+02:00"/><entry id="id.LOC367" term="Bulgaria" countryISOcode="BG" region="Plovdiv" city="Plovdiv" latitude="42.150000" longitude="24.750000" postalCode="4000" timeZone="+02:00"/><entry id="id.LOC368" term="Bulgaria" countryISOcode="BG" region="Plovdiv" city="Stamboliyski" latitude="42.133330" longitude="24.533330" postalCode="4453" timeZone="+02:00"/><entry id="id.LOC369" term="Bulgaria" countryISOcode="BG" region="Shumen" city="Veliki Preslav" latitude="43.166670" longitude="26.816670" postalCode="9850" timeZone="+02:00"/><entry id="id.LOC370" term="Bulgaria" countryISOcode="BG" region="Sofia" city="Bozhurishte" latitude="42.750000" longitude="23.200000" postalCode="2227" timeZone="+02:00"/><entry id="id.LOC371" term="Bulgaria" countryISOcode="BG" region="Sofia" city="Samokov" latitude="42.333330" longitude="23.550000" postalCode="2007" timeZone="+02:00"/><entry id="id.LOC372" term="Bulgaria" countryISOcode="BG" region="Sofia (stolitsa)" city="Sofia" latitude="42.697510" longitude="23.324150" postalCode="1000" timeZone="+02:00"/><entry id="id.LOC373" term="Bulgaria" countryISOcode="BG" region="Stara Zagora" city="Chirpan" latitude="42.200000" longitude="25.333330" postalCode="6200" timeZone="+02:00"/><entry id="id.LOC374" term="Bulgaria" countryISOcode="BG" region="Varna" city="Varna" latitude="43.216670" longitude="27.916670" postalCode="9000" timeZone="+02:00"/><entry id="id.LOC375" term="Burundi" countryISOcode="BI" region="Bujumbura Mairie" city="Bujumbura" latitude="-3.382200" longitude="29.364400" postalCode="" timeZone="+02:00"/><entry id="id.LOC376" term="Cambodia" countryISOcode="KH" region="Phnom Penh" city="Phnom Penh" latitude="11.562450" longitude="104.916010" postalCode="12206" timeZone="+07:00"/><entry id="id.LOC377" term="Canada" countryISOcode="CA" region="Alberta" city="Edmonton" latitude="53.550140" longitude="-113.468710" postalCode="T5A 0A1" timeZone="-07:00"/><entry id="id.LOC378" term="Canada" countryISOcode="CA" region="British Columbia" city="Vancouver" latitude="49.249660" longitude="-123.119340" postalCode="V5K 0A1" timeZone="-08:00"/><entry id="id.LOC379" term="Canada" countryISOcode="CA" region="New Brunswick" city="Germany" latitude="45.566830" longitude="-66.632170" postalCode="E5L 1Z2" timeZone="-04:00"/><entry id="id.LOC380" term="Canada" countryISOcode="CA" region="Ontario" city="Financial District" latitude="43.647130" longitude="-79.380940" postalCode="M5K 1A1" timeZone="-05:00"/><entry id="id.LOC381" term="Canada" countryISOcode="CA" region="Ontario" city="Scotland" latitude="43.016800" longitude="-80.366370" postalCode="N0E 1R0" timeZone="-05:00"/><entry id="id.LOC382" term="Canada" countryISOcode="CA" region="Ontario" city="Toronto" latitude="43.700110" longitude="-79.416300" postalCode="M3B 0A3" timeZone="-05:00"/><entry id="id.LOC383" term="Canada" countryISOcode="CA" region="Quebec" city="Riviere-du-Loup" latitude="47.829877" longitude="-69.552220" postalCode="G5R 1E2" timeZone="-05:00"/><entry id="id.LOC384" term="Canada" countryISOcode="CA" region="Saskatchewan" city="Saskatoon" latitude="52.116790" longitude="-106.634520" postalCode="S7H 0A1" timeZone="-06:00"/><entry id="id.LOC385" term="Chile" countryISOcode="CL" region="Region Metropolitana de Santiago" city="Santiago" latitude="-33.426280" longitude="-70.566560" postalCode="8320000" timeZone="-03:00"/><entry id="id.LOC386" term="China" countryISOcode="CN" region="Anhui" city="Chuzhou" latitude="32.321940" longitude="118.297780" postalCode="239000" timeZone="+08:00"/><entry id="id.LOC387" term="China" countryISOcode="CN" region="Anhui" city="Hefei" latitude="31.863890" longitude="117.280830" postalCode="230061" timeZone="+08:00"/><entry id="id.LOC388" term="China" countryISOcode="CN" region="Beijing" city="Beijing" latitude="39.907500" longitude="116.397230" postalCode="100006" timeZone="+08:00"/><entry id="id.LOC389" term="China" countryISOcode="CN" region="Fujian" city="Fuzhou" latitude="26.061390" longitude="119.306110" postalCode="350004" timeZone="+08:00"/><entry id="id.LOC390" term="China" countryISOcode="CN" region="Guangdong" city="Guangzhou" latitude="23.116670" longitude="113.250000" postalCode="510140" timeZone="+08:00"/><entry id="id.LOC391" term="China" countryISOcode="CN" region="Guangdong" city="Shenzhen" latitude="22.545540" longitude="114.068300" postalCode="518060" timeZone="+08:00"/><entry id="id.LOC392" term="China" countryISOcode="CN" region="Guangxi" city="Guilin" latitude="25.281940" longitude="110.286390" postalCode="541004" timeZone="+08:00"/><entry id="id.LOC393" term="China" countryISOcode="CN" region="Guangxi" city="Nanning" latitude="22.816670" longitude="108.316670" postalCode="530004" timeZone="+08:00"/><entry id="id.LOC394" term="China" countryISOcode="CN" region="Guizhou" city="Anshun" latitude="26.250000" longitude="105.933330" postalCode="561000" timeZone="+08:00"/><entry id="id.LOC395" term="China" countryISOcode="CN" region="Guizhou" city="Bijie" latitude="27.312500" longitude="105.294170" postalCode="551712" timeZone="+08:00"/><entry id="id.LOC396" term="China" countryISOcode="CN" region="Guizhou" city="Guiyang" latitude="26.583330" longitude="106.716670" postalCode="550001" timeZone="+08:00"/><entry id="id.LOC397" term="China" countryISOcode="CN" region="Guizhou" city="Liupanshui" latitude="26.594444" longitude="104.833333" postalCode="553000" timeZone="+08:00"/><entry id="id.LOC398" term="China" countryISOcode="CN" region="Guizhou" city="Qiandongnan" latitude="26.583333" longitude="107.983333" postalCode="556000" timeZone="+08:00"/><entry id="id.LOC399" term="China" countryISOcode="CN" region="Guizhou" city="Qiannan" latitude="26.266667" longitude="107.516667" postalCode="558000" timeZone="+08:00"/><entry id="id.LOC400" term="China" countryISOcode="CN" region="Guizhou" city="Qianxinan" latitude="25.083300" longitude="104.900000" postalCode="562400" timeZone="+08:00"/><entry id="id.LOC401" term="China" countryISOcode="CN" region="Guizhou" city="Tongren" latitude="27.717220" longitude="109.185280" postalCode="554312" timeZone="+08:00"/><entry id="id.LOC402" term="China" countryISOcode="CN" region="Guizhou" city="Zunyi" latitude="27.686670" longitude="106.907220" postalCode="563003" timeZone="+08:00"/><entry id="id.LOC403" term="China" countryISOcode="CN" region="Heilongjiang" city="Daqing" latitude="46.583330" longitude="125.000000" postalCode="163001" timeZone="+08:00"/><entry id="id.LOC404" term="China" countryISOcode="CN" region="Heilongjiang" city="Harbin" latitude="45.750000" longitude="126.650000" postalCode="150001" timeZone="+08:00"/><entry id="id.LOC405" term="China" countryISOcode="CN" region="Heilongjiang" city="Hegang" latitude="47.400000" longitude="130.366670" postalCode="154105" timeZone="+08:00"/><entry id="id.LOC406" term="China" countryISOcode="CN" region="Heilongjiang" city="Heihe" latitude="50.266670" longitude="127.466670" postalCode="231100" timeZone="+08:00"/><entry id="id.LOC407" term="China" countryISOcode="CN" region="Heilongjiang" city="Jiamusi" latitude="46.833330" longitude="130.350000" postalCode="154002" timeZone="+08:00"/><entry id="id.LOC408" term="China" countryISOcode="CN" region="Heilongjiang" city="Jixi" latitude="45.300000" longitude="130.966670" postalCode="158100" timeZone="+08:00"/><entry id="id.LOC409" term="China" countryISOcode="CN" region="Heilongjiang" city="Laojieji" latitude="44.970120" longitude="127.965300" postalCode="150609" timeZone="+08:00"/><entry id="id.LOC410" term="China" countryISOcode="CN" region="Heilongjiang" city="Mudanjiang" latitude="44.583330" longitude="129.600000" postalCode="157000" timeZone="+08:00"/><entry id="id.LOC411" term="China" countryISOcode="CN" region="Heilongjiang" city="Qiqihar" latitude="47.340830" longitude="123.967220" postalCode="161000" timeZone="+08:00"/><entry id="id.LOC412" term="China" countryISOcode="CN" region="Heilongjiang" city="Qitaihe" latitude="45.800000" longitude="130.850000" postalCode="154606" timeZone="+08:00"/><entry id="id.LOC413" term="China" countryISOcode="CN" region="Heilongjiang" city="Shuangyashan" latitude="46.636110" longitude="131.153890" postalCode="155100" timeZone="+08:00"/><entry id="id.LOC414" term="China" countryISOcode="CN" region="Heilongjiang" city="Suihua" latitude="46.640560" longitude="126.996940" postalCode="231201" timeZone="+08:00"/><entry id="id.LOC415" term="China" countryISOcode="CN" region="Heilongjiang" city="Tahe" latitude="52.333330" longitude="124.733330" postalCode="165200" timeZone="+08:00"/><entry id="id.LOC416" term="China" countryISOcode="CN" region="Heilongjiang" city="Yichun" latitude="47.700000" longitude="128.900000" postalCode="153000" timeZone="+08:00"/><entry id="id.LOC417" term="China" countryISOcode="CN" region="Henan" city="Anyang" latitude="36.099440" longitude="114.328890" postalCode="455000" timeZone="+08:00"/><entry id="id.LOC418" term="China" countryISOcode="CN" region="Henan" city="Hebi" latitude="35.899170" longitude="114.192500" postalCode="410603" timeZone="+08:00"/><entry id="id.LOC419" term="China" countryISOcode="CN" region="Henan" city="Jiaozuo" latitude="35.239720" longitude="113.233060" postalCode="454000" timeZone="+08:00"/><entry id="id.LOC420" term="China" countryISOcode="CN" region="Henan" city="Jiyuan" latitude="35.083333" longitude="112.583333" postalCode="454650" timeZone="+08:00"/><entry id="id.LOC421" term="China" countryISOcode="CN" region="Henan" city="Kaifeng" latitude="34.791110" longitude="114.348330" postalCode="475000" timeZone="+08:00"/><entry id="id.LOC422" term="China" countryISOcode="CN" region="Henan" city="Luohe" latitude="33.571670" longitude="114.035280" postalCode="411100" timeZone="+08:00"/><entry id="id.LOC423" term="China" countryISOcode="CN" region="Henan" city="Luoyang" latitude="34.683610" longitude="112.453610" postalCode="471001" timeZone="+08:00"/><entry id="id.LOC424" term="China" countryISOcode="CN" region="Henan" city="Nanyang" latitude="32.994720" longitude="112.532780" postalCode="473059" timeZone="+08:00"/><entry id="id.LOC425" term="China" countryISOcode="CN" region="Henan" city="Pingdingshan" latitude="33.738470" longitude="113.301190" postalCode="467000" timeZone="+08:00"/><entry id="id.LOC426" term="China" countryISOcode="CN" region="Henan" city="Puyang" latitude="35.702780" longitude="115.005280" postalCode="457100" timeZone="+08:00"/><entry id="id.LOC427" term="China" countryISOcode="CN" region="Henan" city="Sanmenxia" latitude="34.766667" longitude="111.200000" postalCode="472000" timeZone="+08:00"/><entry id="id.LOC428" term="China" countryISOcode="CN" region="Henan" city="Shangqiu" latitude="34.450000" longitude="115.650000" postalCode="476000" timeZone="+08:00"/><entry id="id.LOC429" term="China" countryISOcode="CN" region="Henan" city="Xinxiang" latitude="35.308890" longitude="113.867220" postalCode="453000" timeZone="+08:00"/><entry id="id.LOC430" term="China" countryISOcode="CN" region="Henan" city="Xinyang" latitude="32.122780" longitude="114.065560" postalCode="464000" timeZone="+08:00"/><entry id="id.LOC431" term="China" countryISOcode="CN" region="Henan" city="Xuchang" latitude="34.016670" longitude="113.816670" postalCode="461100" timeZone="+08:00"/><entry id="id.LOC432" term="China" countryISOcode="CN" region="Henan" city="Zhengzhou" latitude="34.757780" longitude="113.648610" postalCode="450042" timeZone="+08:00"/><entry id="id.LOC433" term="China" countryISOcode="CN" region="Henan" city="Zhoukou" latitude="33.633330" longitude="114.633330" postalCode="466001" timeZone="+08:00"/><entry id="id.LOC434" term="China" countryISOcode="CN" region="Henan" city="Zhumadian" latitude="32.979440" longitude="114.029440" postalCode="463000" timeZone="+08:00"/><entry id="id.LOC435" term="China" countryISOcode="CN" region="Jiangsu" city="Changzhou" latitude="31.783330" longitude="119.966670" postalCode="213164" timeZone="+08:00"/><entry id="id.LOC436" term="China" countryISOcode="CN" region="Jiangsu" city="Nanjing" latitude="32.061670" longitude="118.777780" postalCode="210008" timeZone="+08:00"/><entry id="id.LOC437" term="China" countryISOcode="CN" region="Nei Mongol" city="Baotou" latitude="40.652220" longitude="109.822220" postalCode="14010" timeZone="+08:00"/><entry id="id.LOC438" term="China" countryISOcode="CN" region="Ningxia" city="Guyuan" latitude="36.016667" longitude="106.250000" postalCode="756000" timeZone="+08:00"/><entry id="id.LOC439" term="China" countryISOcode="CN" region="Ningxia" city="Wuzhong" latitude="38.000000" longitude="106.200000" postalCode="751100" timeZone="+08:00"/><entry id="id.LOC440" term="China" countryISOcode="CN" region="Ningxia" city="Yinchuan" latitude="38.468060" longitude="106.273060" postalCode="750001" timeZone="+08:00"/><entry id="id.LOC441" term="China" countryISOcode="CN" region="Ningxia" city="Zhongwei" latitude="37.510000" longitude="105.180000" postalCode="755000" timeZone="+08:00"/><entry id="id.LOC442" term="China" countryISOcode="CN" region="Shaanxi" city="Ankang" latitude="32.680000" longitude="109.017220" postalCode="725000" timeZone="+08:00"/><entry id="id.LOC443" term="China" countryISOcode="CN" region="Shaanxi" city="Baoji" latitude="34.353611" longitude="107.375278" postalCode="721300" timeZone="+08:00"/><entry id="id.LOC444" term="China" countryISOcode="CN" region="Shaanxi" city="Hanzhong" latitude="33.072780" longitude="107.030280" postalCode="723000" timeZone="+08:00"/><entry id="id.LOC445" term="China" countryISOcode="CN" region="Shaanxi" city="Shangluo" latitude="33.872200" longitude="109.941000" postalCode="726000" timeZone="+08:00"/><entry id="id.LOC446" term="China" countryISOcode="CN" region="Shaanxi" city="Tongchuan" latitude="34.898800" longitude="108.950560" postalCode="610200" timeZone="+08:00"/><entry id="id.LOC447" term="China" countryISOcode="CN" region="Shaanxi" city="Weinan" latitude="34.503550" longitude="109.508910" postalCode="714000" timeZone="+08:00"/><entry id="id.LOC448" term="China" countryISOcode="CN" region="Shaanxi" city="Xi'an" latitude="34.258330" longitude="108.928610" postalCode="710002" timeZone="+08:00"/><entry id="id.LOC449" term="China" countryISOcode="CN" region="Shaanxi" city="Xiantaiba" latitude="33.393400" longitude="106.368500" postalCode="724305" timeZone="+08:00"/><entry id="id.LOC450" term="China" countryISOcode="CN" region="Shaanxi" city="Xianyang" latitude="34.337780" longitude="108.702610" postalCode="610400" timeZone="+08:00"/><entry id="id.LOC451" term="China" countryISOcode="CN" region="Shaanxi" city="Yan'an" latitude="36.583333" longitude="109.483333" postalCode="716000" timeZone="+08:00"/><entry id="id.LOC452" term="China" countryISOcode="CN" region="Shaanxi" city="Yulin" latitude="38.290560" longitude="109.749440" postalCode="719000" timeZone="+08:00"/><entry id="id.LOC453" term="China" countryISOcode="CN" region="Shandong" city="Dezhou" latitude="37.448610" longitude="116.292500" postalCode="253023" timeZone="+08:00"/><entry id="id.LOC454" term="China" countryISOcode="CN" region="Shandong" city="Jinan" latitude="36.668330" longitude="116.997220" postalCode="250000" timeZone="+08:00"/><entry id="id.LOC455" term="China" countryISOcode="CN" region="Shandong" city="Weifang" latitude="36.710000" longitude="119.101940" postalCode="261061" timeZone="+08:00"/><entry id="id.LOC456" term="China" countryISOcode="CN" region="Shanghai" city="Shanghai" latitude="31.222220" longitude="121.458060" postalCode="200020" timeZone="+08:00"/><entry id="id.LOC457" term="China" countryISOcode="CN" region="Shanxi" city="Taiyuan" latitude="37.869440" longitude="112.560280" postalCode="30002" timeZone="+08:00"/><entry id="id.LOC458" term="Croatia" countryISOcode="HR" region="-" city="-" latitude="45.814440" longitude="15.977980" postalCode="" timeZone="+01:00"/><entry id="id.LOC459" term="Croatia" countryISOcode="HR" region="Bjelovarsko-bilogorska zupanija" city="Garesnica" latitude="45.574440" longitude="16.941390" postalCode="43280" timeZone="+01:00"/><entry id="id.LOC460" term="Croatia" countryISOcode="HR" region="Brodsko-posavska zupanija" city="Batrina" latitude="45.189440" longitude="17.666390" postalCode="35410" timeZone="+01:00"/><entry id="id.LOC461" term="Croatia" countryISOcode="HR" region="Brodsko-posavska zupanija" city="Davor" latitude="45.115280" longitude="17.516390" postalCode="35425" timeZone="+01:00"/><entry id="id.LOC462" term="Croatia" countryISOcode="HR" region="Brodsko-posavska zupanija" city="Podvinje" latitude="45.190280" longitude="18.026940" postalCode="35107" timeZone="+01:00"/><entry id="id.LOC463" term="Croatia" countryISOcode="HR" region="Brodsko-posavska zupanija" city="Slavonski Brod" latitude="45.160280" longitude="18.015560" postalCode="35106" timeZone="+01:00"/><entry id="id.LOC464" term="Croatia" countryISOcode="HR" region="Dubrovacko-neretvanska zupanija" city="Jasenice" latitude="42.592780" longitude="18.269170" postalCode="20210" timeZone="+01:00"/><entry id="id.LOC465" term="Croatia" countryISOcode="HR" region="Dubrovacko-neretvanska zupanija" city="Mokosica" latitude="42.675560" longitude="18.090280" postalCode="20236" timeZone="+01:00"/><entry id="id.LOC466" term="Croatia" countryISOcode="HR" region="Grad Zagreb" city="Zagreb" latitude="45.814440" longitude="15.977980" postalCode="10020" timeZone="+01:00"/><entry id="id.LOC467" term="Croatia" countryISOcode="HR" region="Istarska zupanija" city="Buje" latitude="45.410000" longitude="13.661940" postalCode="52460" timeZone="+01:00"/><entry id="id.LOC468" term="Croatia" countryISOcode="HR" region="Istarska zupanija" city="Fazana" latitude="44.927500" longitude="13.803610" postalCode="52212" timeZone="+01:00"/><entry id="id.LOC469" term="Croatia" countryISOcode="HR" region="Istarska zupanija" city="Labin" latitude="45.095000" longitude="14.119720" postalCode="52220" timeZone="+01:00"/><entry id="id.LOC470" term="Croatia" countryISOcode="HR" region="Istarska zupanija" city="Marcana" latitude="44.955280" longitude="13.953890" postalCode="52206" timeZone="+01:00"/><entry id="id.LOC471" term="Croatia" countryISOcode="HR" region="Istarska zupanija" city="Porec" latitude="45.225830" longitude="13.593890" postalCode="52440" timeZone="+01:00"/><entry id="id.LOC472" term="Croatia" countryISOcode="HR" region="Istarska zupanija" city="Pula" latitude="44.868330" longitude="13.848060" postalCode="52100" timeZone="+01:00"/><entry id="id.LOC473" term="Croatia" countryISOcode="HR" region="Karlovacka zupanija" city="Ogulin" latitude="45.266110" longitude="15.228610" postalCode="47300" timeZone="+01:00"/><entry id="id.LOC474" term="Croatia" countryISOcode="HR" region="Karlovacka zupanija" city="Ostarije" latitude="45.224720" longitude="15.273330" postalCode="47302" timeZone="+01:00"/><entry id="id.LOC475" term="Croatia" countryISOcode="HR" region="Karlovacka zupanija" city="Ozalj" latitude="45.606670" longitude="15.461940" postalCode="47280" timeZone="+01:00"/><entry id="id.LOC476" term="Croatia" countryISOcode="HR" region="Koprivnicko-krizevacka zupanija" city="Koprivnica" latitude="46.162780" longitude="16.827500" postalCode="48000" timeZone="+01:00"/><entry id="id.LOC477" term="Croatia" countryISOcode="HR" region="Koprivnicko-krizevacka zupanija" city="Krizevci" latitude="46.021940" longitude="16.542500" postalCode="48260" timeZone="+01:00"/><entry id="id.LOC478" term="Croatia" countryISOcode="HR" region="Krapinsko-zagorska zupanija" city="Oroslavje" latitude="46.002780" longitude="15.911390" postalCode="49243" timeZone="+01:00"/><entry id="id.LOC479" term="Croatia" countryISOcode="HR" region="Krapinsko-zagorska zupanija" city="Zabok" latitude="46.029440" longitude="15.915000" postalCode="49210" timeZone="+01:00"/><entry id="id.LOC480" term="Croatia" countryISOcode="HR" region="Osjecko-baranjska zupanija" city="Beli Manastir" latitude="45.770000" longitude="18.603610" postalCode="31300" timeZone="+01:00"/><entry id="id.LOC481" term="Croatia" countryISOcode="HR" region="Osjecko-baranjska zupanija" city="Osijek" latitude="45.551110" longitude="18.693890" postalCode="31000" timeZone="+01:00"/><entry id="id.LOC482" term="Croatia" countryISOcode="HR" region="Osjecko-baranjska zupanija" city="Valpovo" latitude="45.660830" longitude="18.418610" postalCode="31550" timeZone="+01:00"/><entry id="id.LOC483" term="Croatia" countryISOcode="HR" region="Osjecko-baranjska zupanija" city="Viljevo" latitude="45.751390" longitude="18.063060" postalCode="31531" timeZone="+01:00"/><entry id="id.LOC484" term="Croatia" countryISOcode="HR" region="Primorsko-goranska zupanija" city="Krk" latitude="45.025830" longitude="14.573060" postalCode="51500" timeZone="+01:00"/><entry id="id.LOC485" term="Croatia" countryISOcode="HR" region="Primorsko-goranska zupanija" city="Rijeka" latitude="45.343060" longitude="14.409170" postalCode="51216" timeZone="+01:00"/><entry id="id.LOC486" term="Croatia" countryISOcode="HR" region="Sibensko-kninska zupanija" city="Sibenik" latitude="43.727220" longitude="15.905830" postalCode="22030" timeZone="+01:00"/><entry id="id.LOC487" term="Croatia" countryISOcode="HR" region="Sisacko-moslavacka zupanija" city="Sisak" latitude="45.466110" longitude="16.378330" postalCode="44000" timeZone="+01:00"/><entry id="id.LOC488" term="Croatia" countryISOcode="HR" region="Splitsko-dalmatinska zupanija" city="Brela" latitude="43.368890" longitude="16.934170" postalCode="21322" timeZone="+01:00"/><entry id="id.LOC489" term="Croatia" countryISOcode="HR" region="Splitsko-dalmatinska zupanija" city="Brnaze" latitude="43.680000" longitude="16.649720" postalCode="21230" timeZone="+01:00"/><entry id="id.LOC490" term="Croatia" countryISOcode="HR" region="Splitsko-dalmatinska zupanija" city="Split" latitude="43.508910" longitude="16.439150" postalCode="21000" timeZone="+01:00"/><entry id="id.LOC491" term="Croatia" countryISOcode="HR" region="Viroviticko-podravska zupanija" city="Orahovica" latitude="45.540000" longitude="17.884720" postalCode="33515" timeZone="+01:00"/><entry id="id.LOC492" term="Croatia" countryISOcode="HR" region="Viroviticko-podravska zupanija" city="Virovitica" latitude="45.831940" longitude="17.383890" postalCode="33000" timeZone="+01:00"/><entry id="id.LOC493" term="Croatia" countryISOcode="HR" region="Vukovarsko-srijemska zupanija" city="Rokovci" latitude="45.231110" longitude="18.743890" postalCode="32271" timeZone="+01:00"/><entry id="id.LOC494" term="Croatia" countryISOcode="HR" region="Zadarska zupanija" city="Zadar" latitude="44.119720" longitude="15.242220" postalCode="23000" timeZone="+01:00"/><entry id="id.LOC495" term="Croatia" countryISOcode="HR" region="Zagrebacka zupanija" city="Brckovljani" latitude="45.833330" longitude="16.300000" postalCode="10370" timeZone="+01:00"/><entry id="id.LOC496" term="Croatia" countryISOcode="HR" region="Zagrebacka zupanija" city="Samobor" latitude="45.803060" longitude="15.718060" postalCode="10430" timeZone="+01:00"/><entry id="id.LOC497" term="Cyprus" countryISOcode="CY" region="Lefkosia" city="Nicosia" latitude="35.166670" longitude="33.366670" postalCode="1015" timeZone="+02:00"/><entry id="id.LOC498" term="Czechia" countryISOcode="CZ" region="Jihocesky kraj" city="Ceske Budejovice" latitude="48.974470" longitude="14.474340" postalCode="370 01" timeZone="+01:00"/><entry id="id.LOC499" term="Czechia" countryISOcode="CZ" region="Jihomoravsky kraj" city="Brno" latitude="49.195220" longitude="16.607960" postalCode="614 00" timeZone="+01:00"/><entry id="id.LOC500" term="Czechia" countryISOcode="CZ" region="Karlovarsky kraj" city="Chodov" latitude="50.240180" longitude="12.745510" postalCode="357 35" timeZone="+01:00"/><entry id="id.LOC501" term="Czechia" countryISOcode="CZ" region="Karlovarsky kraj" city="Sokolov" latitude="50.181300" longitude="12.640100" postalCode="356 01" timeZone="+01:00"/><entry id="id.LOC502" term="Czechia" countryISOcode="CZ" region="Kralovehradecky kraj" city="Novy Bydzov" latitude="50.241500" longitude="15.490820" postalCode="504 01" timeZone="+01:00"/><entry id="id.LOC503" term="Czechia" countryISOcode="CZ" region="Kralovehradecky kraj" city="Smidary" latitude="50.291460" longitude="15.477250" postalCode="503 53" timeZone="+01:00"/><entry id="id.LOC504" term="Czechia" countryISOcode="CZ" region="Moravskoslezsky kraj" city="Ostrava" latitude="49.834650" longitude="18.282040" postalCode="710 00" timeZone="+01:00"/><entry id="id.LOC505" term="Czechia" countryISOcode="CZ" region="Pardubicky kraj" city="Chrudim" latitude="49.951090" longitude="15.795580" postalCode="537 05" timeZone="+01:00"/><entry id="id.LOC506" term="Czechia" countryISOcode="CZ" region="Pardubicky kraj" city="Policka" latitude="49.714650" longitude="16.265430" postalCode="572 01" timeZone="+01:00"/><entry id="id.LOC507" term="Czechia" countryISOcode="CZ" region="Praha, Hlavni mesto" city="Prague" latitude="50.088040" longitude="14.420760" postalCode="150 00" timeZone="+01:00"/><entry id="id.LOC508" term="Czechia" countryISOcode="CZ" region="Stredocesky kraj" city="Beroun" latitude="49.963820" longitude="14.072000" postalCode="266 01" timeZone="+01:00"/><entry id="id.LOC509" term="Czechia" countryISOcode="CZ" region="Stredocesky kraj" city="Hostivice" latitude="50.081580" longitude="14.258560" postalCode="253 01" timeZone="+01:00"/><entry id="id.LOC510" term="Czechia" countryISOcode="CZ" region="Stredocesky kraj" city="Jirny" latitude="50.115780" longitude="14.699230" postalCode="25090" timeZone="+01:00"/><entry id="id.LOC511" term="Czechia" countryISOcode="CZ" region="Stredocesky kraj" city="Kraluv Dvur" latitude="49.949810" longitude="14.034450" postalCode="267 01" timeZone="+01:00"/><entry id="id.LOC512" term="Czechia" countryISOcode="CZ" region="Stredocesky kraj" city="Zebrak" latitude="49.875740" longitude="13.897350" postalCode="267 51" timeZone="+01:00"/><entry id="id.LOC513" term="Czechia" countryISOcode="CZ" region="Ustecky kraj" city="Chomutov" latitude="50.460480" longitude="13.417790" postalCode="430 04" timeZone="+01:00"/><entry id="id.LOC514" term="Czechia" countryISOcode="CZ" region="Zlinsky kraj" city="Slavicin" latitude="49.087990" longitude="17.873490" postalCode="763 21" timeZone="+01:00"/><entry id="id.LOC515" term="Czechia" countryISOcode="CZ" region="Zlinsky kraj" city="Stitna nad Vlari" latitude="49.068810" longitude="17.982740" postalCode="763 33" timeZone="+01:00"/><entry id="id.LOC516" term="Czechia" countryISOcode="CZ" region="Zlinsky kraj" city="Valasske Klobouky" latitude="49.140640" longitude="18.007600" postalCode="766 01" timeZone="+01:00"/><entry id="id.LOC517" term="Czechia" countryISOcode="CZ" region="Zlinsky kraj" city="Zlin" latitude="49.216670" longitude="17.666670" postalCode="760 01" timeZone="+01:00"/><entry id="id.LOC518" term="Denmark" countryISOcode="DK" region="Hovedstaden" city="Akirkeby" latitude="55.070800" longitude="14.919780" postalCode="3720" timeZone="+01:00"/><entry id="id.LOC519" term="Denmark" countryISOcode="DK" region="Hovedstaden" city="Ballerup" latitude="55.731650" longitude="12.363280" postalCode="2750" timeZone="+01:00"/><entry id="id.LOC520" term="Denmark" countryISOcode="DK" region="Hovedstaden" city="Birkerod" latitude="55.847590" longitude="12.427910" postalCode="3460" timeZone="+01:00"/><entry id="id.LOC521" term="Denmark" countryISOcode="DK" region="Hovedstaden" city="Buddinge" latitude="55.757690" longitude="12.488990" postalCode="2860" timeZone="+01:00"/><entry id="id.LOC522" term="Denmark" countryISOcode="DK" region="Hovedstaden" city="Copenhagen" latitude="55.675940" longitude="12.565530" postalCode="1060" timeZone="+01:00"/><entry id="id.LOC523" term="Denmark" countryISOcode="DK" region="Hovedstaden" city="Frederikssund" latitude="55.839560" longitude="12.068960" postalCode="3600" timeZone="+01:00"/><entry id="id.LOC524" term="Denmark" countryISOcode="DK" region="Hovedstaden" city="Frederiksvaerk" latitude="55.970730" longitude="12.022500" postalCode="3300" timeZone="+01:00"/><entry id="id.LOC525" term="Denmark" countryISOcode="DK" region="Hovedstaden" city="Gilleleje" latitude="56.121960" longitude="12.310560" postalCode="3250" timeZone="+01:00"/><entry id="id.LOC526" term="Denmark" countryISOcode="DK" region="Hovedstaden" city="Glostrup" latitude="55.666670" longitude="12.400000" postalCode="2600" timeZone="+01:00"/><entry id="id.LOC527" term="Denmark" countryISOcode="DK" region="Hovedstaden" city="Graested" latitude="56.065580" longitude="12.285120" postalCode="3230" timeZone="+01:00"/><entry id="id.LOC528" term="Denmark" countryISOcode="DK" region="Hovedstaden" city="Helsinge" latitude="56.022830" longitude="12.197520" postalCode="3200" timeZone="+01:00"/><entry id="id.LOC529" term="Denmark" countryISOcode="DK" region="Hovedstaden" city="Hundested" latitude="55.966670" longitude="11.866670" postalCode="3390" timeZone="+01:00"/><entry id="id.LOC530" term="Denmark" countryISOcode="DK" region="Hovedstaden" city="Jaegerspris" latitude="55.855440" longitude="11.967860" postalCode="3630" timeZone="+01:00"/><entry id="id.LOC531" term="Denmark" countryISOcode="DK" region="Hovedstaden" city="Liseleje" latitude="56.005310" longitude="11.948270" postalCode="3370" timeZone="+01:00"/><entry id="id.LOC532" term="Denmark" countryISOcode="DK" region="Hovedstaden" city="Lynge" latitude="55.839410" longitude="12.277250" postalCode="3540" timeZone="+01:00"/><entry id="id.LOC533" term="Denmark" countryISOcode="DK" region="Hovedstaden" city="Ronne" latitude="55.100910" longitude="14.706640" postalCode="3700" timeZone="+01:00"/><entry id="id.LOC534" term="Denmark" countryISOcode="DK" region="Hovedstaden" city="Skibby" latitude="55.751220" longitude="11.960830" postalCode="4050" timeZone="+01:00"/><entry id="id.LOC535" term="Denmark" countryISOcode="DK" region="Hovedstaden" city="Vallensbaek" latitude="55.633330" longitude="12.366670" postalCode="2665" timeZone="+01:00"/><entry id="id.LOC536" term="Denmark" countryISOcode="DK" region="Midtjylland" city="Arhus" latitude="56.156740" longitude="10.210760" postalCode="8210" timeZone="+01:00"/><entry id="id.LOC537" term="Denmark" countryISOcode="DK" region="Midtjylland" city="Bjerringbro" latitude="56.377970" longitude="9.660650" postalCode="8850" timeZone="+01:00"/><entry id="id.LOC538" term="Denmark" countryISOcode="DK" region="Midtjylland" city="Bording Kirkeby" latitude="56.168710" longitude="9.243840" postalCode="7441" timeZone="+01:00"/><entry id="id.LOC539" term="Denmark" countryISOcode="DK" region="Midtjylland" city="Braedstrup" latitude="55.970790" longitude="9.608550" postalCode="8740" timeZone="+01:00"/><entry id="id.LOC540" term="Denmark" countryISOcode="DK" region="Midtjylland" city="Brande" latitude="55.938140" longitude="9.121780" postalCode="7330" timeZone="+01:00"/><entry id="id.LOC541" term="Denmark" countryISOcode="DK" region="Midtjylland" city="Ebeltoft" latitude="56.194420" longitude="10.682100" postalCode="8400" timeZone="+01:00"/><entry id="id.LOC542" term="Denmark" countryISOcode="DK" region="Midtjylland" city="Grenaa" latitude="56.415780" longitude="10.878250" postalCode="8500" timeZone="+01:00"/><entry id="id.LOC543" term="Denmark" countryISOcode="DK" region="Midtjylland" city="Harboore" latitude="56.617520" longitude="8.180690" postalCode="7673" timeZone="+01:00"/><entry id="id.LOC544" term="Denmark" countryISOcode="DK" region="Midtjylland" city="Hedensted" latitude="55.770430" longitude="9.701100" postalCode="8722" timeZone="+01:00"/><entry id="id.LOC545" term="Denmark" countryISOcode="DK" region="Midtjylland" city="Herning" latitude="56.139320" longitude="8.973780" postalCode="7429" timeZone="+01:00"/><entry id="id.LOC546" term="Denmark" countryISOcode="DK" region="Midtjylland" city="Holstebro" latitude="56.360090" longitude="8.616070" postalCode="7500" timeZone="+01:00"/><entry id="id.LOC547" term="Denmark" countryISOcode="DK" region="Midtjylland" city="Hvide Sande" latitude="56.004520" longitude="8.129370" postalCode="6960" timeZone="+01:00"/><entry id="id.LOC548" term="Denmark" countryISOcode="DK" region="Midtjylland" city="Ikast" latitude="56.138830" longitude="9.157680" postalCode="7430" timeZone="+01:00"/><entry id="id.LOC549" term="Denmark" countryISOcode="DK" region="Midtjylland" city="Kibaek" latitude="56.031700" longitude="8.856970" postalCode="6933" timeZone="+01:00"/><entry id="id.LOC550" term="Denmark" countryISOcode="DK" region="Midtjylland" city="Kjellerup" latitude="56.285810" longitude="9.435280" postalCode="8620" timeZone="+01:00"/><entry id="id.LOC551" term="Denmark" countryISOcode="DK" region="Midtjylland" city="Lemvig" latitude="56.548560" longitude="8.310190" postalCode="7620" timeZone="+01:00"/><entry id="id.LOC552" term="Denmark" countryISOcode="DK" region="Midtjylland" city="Ryomgard" latitude="56.384300" longitude="10.502950" postalCode="8550" timeZone="+01:00"/><entry id="id.LOC553" term="Denmark" countryISOcode="DK" region="Midtjylland" city="Silkeborg" latitude="56.169700" longitude="9.545080" postalCode="8600" timeZone="+01:00"/><entry id="id.LOC554" term="Denmark" countryISOcode="DK" region="Midtjylland" city="Skive" latitude="56